{"_id":{"$oid":"5c7ac5cb0b1675c9eb4b5702"},"name":"SPAULDING REHABILITATION HOSPITAL CAPE COD","city":"SANDWICH","address":"311 SERVICE ROAD","state":"MA","zip":2537,"location":{"coordinates":[-70.4681028369999,41.7329844970001],"type":"Point"}}
{"_id":{"$oid":"5c7ac5cb0b1675c9eb4b5703"},"name":"NORTH SHORE MEDICAL CENTER  - UNION CAMPUS","city":"LYNN","address":"500 LYNNFIELD STREET","state":"MA","zip":1904,"location":{"coordinates":[-70.9799,42.5018000000001],"type":"Point"}}
{"_id":{"$oid":"5c7ac5cb0b1675c9eb4b5704"},"name":"NORWOOD HOSPITAL","city":"NORWOOD","address":"800 WASHINGTON ROAD","state":"MA","zip":2062,"location":{"coordinates":[-71.2021,42.1890000000001],"type":"Point"}}
{"_id":{"$oid":"5c7ac5cb0b1675c9eb4b5705"},"name":"SIGNATURE HEALTHCARE BROCKTON HOSPITAL","city":"BROCKTON","address":"680 CENTRE STREET","state":"MA","zip":2302,"location":{"coordinates":[-70.9915,42.0879],"type":"Point"}}
{"_id":{"$oid":"5c7ac5cb0b1675c9eb4b5706"},"name":"SPAULDING REHABILITATION HOSPITAL","city":"BOSTON","address":"300 1ST AVE","state":"MA","zip":2129,"location":{"coordinates":[-71.049055546,42.3785090760001],"type":"Point"}}
{"_id":{"$oid":"5c7ac5cb0b1675c9eb4b5707"},"name":"TAUNTON STATE HOSPITAL","city":"TAUNTON","address":"60 HODGES AVE, BOX 151","state":"MA","zip":2780,"location":{"coordinates":[-71.1022058839999,41.912671539],"type":"Point"}}
{"_id":{"$oid":"5c7ac5cb0b1675c9eb4b5708"},"name":"TEWKSBURY HOSPITAL","city":"TEWKSBURY","address":"365 EAST STREET","state":"MA","zip":1876,"location":{"coordinates":[-71.218223198,42.607074197],"type":"Point"}}
{"_id":{"$oid":"5c7ac5cb0b1675c9eb4b5709"},"name":"UMASS MEMORIAL MEDICAL CENTER - MEMORIAL CAMPUS","city":"WORCESTER","address":"119 BELMONT STREET","state":"MA","zip":1605,"location":{"coordinates":[-71.7923,42.2729000000001],"type":"Point"}}
{"_id":{"$oid":"5c7ac5cb0b1675c9eb4b570a"},"name":"VIBRA HOSPITAL OF WESTERN MASS CENTRAL CAMPUS","city":"LEICESTER","address":"111 HUNTOON MEMORIAL HIGHWAY","state":"MA","zip":1542,"location":{"coordinates":[-71.8988273429999,42.201899283],"type":"Point"}}
{"_id":{"$oid":"5c7ac5cb0b1675c9eb4b570b"},"name":"VIBRA HOSPITAL OF WESTERN MASSACHUSETTS","city":"SPRINGFIELD","address":"1400 STATE STREET","state":"MA","zip":1109,"location":{"coordinates":[-72.547438415,42.120518363],"type":"Point"}}
{"_id":{"$oid":"5c7ac5cb0b1675c9eb4b570c"},"name":"WESTWOOD/PEMBROKE HEALTH SYSTEM PEMBROKE","city":"PEMBROKE","address":"199 OAK STREET","state":"MA","zip":2359,"location":{"coordinates":[-70.764458636,42.097623722],"type":"Point"}}
{"_id":{"$oid":"5c7ac5cb0b1675c9eb4b570d"},"name":"WESTWOOD/PEMBROKE HEALTH SYSTEM WESTWOOD","city":"WESTWOOD","address":"45 CLAPBOARDTREE STREET","state":"MA","zip":2090,"location":{"coordinates":[-71.224077232,42.2065041480001],"type":"Point"}}
{"_id":{"$oid":"5c7ac5cb0b1675c9eb4b570e"},"name":"WHITTIER PAVILION","city":"HAVERHILL","address":"76 SUMMER STREET","state":"MA","zip":1830,"location":{"coordinates":[-71.0731763699999,42.778546964],"type":"Point"}}
{"_id":{"$oid":"5c7ac5cb0b1675c9eb4b570f"},"name":"WHITTIER REHABILITATION HOSPITAL","city":"WESTBOROUGH","address":"150 FLANDERS RD","state":"MA","zip":1581,"location":{"coordinates":[-71.567841777,42.2764796720001],"type":"Point"}}
{"_id":{"$oid":"5c7ac5cb0b1675c9eb4b5710"},"name":"WHITTIER REHABILITATION HOSPITAL BRADFORD","city":"HAVERHILL","address":"145 WARD HILL AVE","state":"MA","zip":1830,"location":{"coordinates":[-71.11889838,42.761619082],"type":"Point"}}
{"_id":{"$oid":"5c7ac5cb0b1675c9eb4b5711"},"name":"UMASS MEMORIAL MEDICAL CENTER - UNIVERSITY CAMPUS","city":"WORCESTER","address":"55 LAKE AVENUE NORTH","state":"MA","zip":1655,"location":{"coordinates":[-71.7617,42.2778000000001],"type":"Point"}}
{"_id":{"$oid":"5c7ac5cb0b1675c9eb4b5712"},"name":"WORCESTER RECOVERY CENTER AND HOSPITAL","city":"WORCESTER","address":"309 BELMONT STREET","state":"MA","zip":1604,"location":{"coordinates":[-71.769066943,42.279667187],"type":"Point"}}
{"_id":{"$oid":"5c7ac5cb0b1675c9eb4b5713"},"name":"BAYSTATE FRANKLIN MEDICAL CENTER","city":"GREENFIELD","address":"164 HIGH STREET","state":"MA","zip":1301,"location":{"coordinates":[-72.5923,42.5957000000001],"type":"Point"}}
{"_id":{"$oid":"5c7ac5cb0b1675c9eb4b5714"},"name":"BETH ISRAEL DEACONESS MEDICAL CENTER - EAST CAMPUS","city":"BOSTON","address":"330 BROOKLINE AVENUE","state":"MA","zip":2215,"location":{"coordinates":[-71.1050999999999,42.3395],"type":"Point"}}
{"_id":{"$oid":"5c7ac5cb0b1675c9eb4b5715"},"name":"BOSTON MEDICAL CENTER - EAST NEWTON CAMPUS","city":"BOSTON","address":"88 EAST NEWTON STRET","state":"MA","zip":2118,"location":{"coordinates":[-71.0706,42.337],"type":"Point"}}
{"_id":{"$oid":"5c7ac5cb0b1675c9eb4b5716"},"name":"BOSTON MEDICAL CENTER - MENINO CAMPUS","city":"BOSTON","address":"818 HARRISON AVENUE","state":"MA","zip":2118,"location":{"coordinates":[-71.0732,42.3347000000001],"type":"Point"}}
{"_id":{"$oid":"5c7ac5cb0b1675c9eb4b5717"},"name":"CHILDREN'S HOSPITAL BOSTON","city":"BOSTON","address":"300 LONGWOOD AVENUE","state":"MA","zip":2115,"location":{"coordinates":[-71.1064,42.3372000000001],"type":"Point"}}
{"_id":{"$oid":"5c7ac5cb0b1675c9eb4b5718"},"name":"HALLMARK HEALTH SYSTEM - LAWRENCE MEMORIAL HOSPITAL CAMPUS","city":"MEDFORD","address":"170 GOVERNORS AVENUE","state":"MA","zip":2155,"location":{"coordinates":[-71.1113999999999,42.4259000000001],"type":"Point"}}
{"_id":{"$oid":"5c7ac5cb0b1675c9eb4b5719"},"name":"HALLMARK HEALTH SYSTEM - MELROSE-WAKEFIELD HOSPITAL CAMPUS","city":"MELROSE","address":"585 LEBANON STREET","state":"MA","zip":2176,"location":{"coordinates":[-71.0608999999999,42.4605],"type":"Point"}}
{"_id":{"$oid":"5c7ac5cb0b1675c9eb4b571a"},"name":"HOLY FAMILY HOSPITAL AND MEDICAL CENTER","city":"METHUEN","address":"70 EAST STREET","state":"MA","zip":1844,"location":{"coordinates":[-71.1683,42.7277],"type":"Point"}}
{"_id":{"$oid":"5c7ac5cb0b1675c9eb4b571b"},"name":"CAMBRIDGE HEALTH ALLIANCE - CAMBRIDGE CAMPUS","city":"CAMBRIDGE","address":"1493 CAMBRIDGE STREET","state":"MA","zip":2139,"location":{"coordinates":[-71.1041,42.3745000000001],"type":"Point"}}
{"_id":{"$oid":"5c7ac5cb0b1675c9eb4b571c"},"name":"BAYSTATE MEDICAL CENTER","city":"SPRINGFIELD","address":"759 CHESTNUT STREET","state":"MA","zip":1199,"location":{"coordinates":[-72.6032,42.1217],"type":"Point"}}
{"_id":{"$oid":"5c7ac5cb0b1675c9eb4b571d"},"name":"BERKSHIRE MEDICAL CENTER - BERKSHIRE CAMPUS","city":"PITTSFIELD","address":"725 NORTH STREET","state":"MA","zip":1201,"location":{"coordinates":[-73.2492,42.46],"type":"Point"}}
{"_id":{"$oid":"5c7ac5cb0b1675c9eb4b571e"},"name":"CAPE COD HOSPITAL","city":"BARNSTABLE","address":"27 PARK STREET","state":"MA","zip":2601,"location":{"coordinates":[-70.2728999999999,41.6534],"type":"Point"}}
{"_id":{"$oid":"5c7ac5cb0b1675c9eb4b571f"},"name":"COOLEY DICKINSON HOSPITAL","city":"NORTHAMPTON","address":"30 LOCUST STREET","state":"MA","zip":1061,"location":{"coordinates":[-72.6532,42.3302],"type":"Point"}}
{"_id":{"$oid":"5c7ac5cb0b1675c9eb4b5720"},"name":"HEYWOOD HOSPITAL","city":"GARDNER","address":"242 GREEN STREET","state":"MA","zip":1440,"location":{"coordinates":[-71.9870999999999,42.5863000000001],"type":"Point"}}
{"_id":{"$oid":"5c7ac5cb0b1675c9eb4b5721"},"name":"LAWRENCE GENERAL HOSPITAL","city":"LAWRENCE","address":"ONE GENERAL STREET","state":"MA","zip":1842,"location":{"coordinates":[-71.1501,42.71],"type":"Point"}}
{"_id":{"$oid":"5c7ac5cb0b1675c9eb4b5722"},"name":"MERCY MEDICAL CENTER - PROVIDENCE BEHAVIORAL HEALTH HOSPITAL CAMPUS","city":"HOLYOKE","address":"1233 MAIN STREET","state":"MA","zip":1040,"location":{"coordinates":[-72.634,42.1659000000001],"type":"Point"}}
{"_id":{"$oid":"5c7ac5cb0b1675c9eb4b5723"},"name":"ST VINCENTS CHILTON","city":"CLANTON","address":"2030 LAY DAM ROAD","state":"AL","zip":35046,"location":{"coordinates":[-86.62279,32.8802860000001],"type":"Point"}}
{"_id":{"$oid":"5c7ac5cb0b1675c9eb4b5724"},"name":"MOUNT AUBURN HOSPITAL","city":"CAMBRIDGE","address":"330 MOUNT AUBURN STREET","state":"MA","zip":2138,"location":{"coordinates":[-71.1342999999999,42.3741000000001],"type":"Point"}}
{"_id":{"$oid":"5c7ac5cb0b1675c9eb4b5725"},"name":"MERRIMACK VALLEY HOSPITAL","city":"HAVERHILL","address":"140 LINCOLN AVENUE","state":"MA","zip":1830,"location":{"coordinates":[-71.0448,42.7653],"type":"Point"}}
{"_id":{"$oid":"5c7ac5cb0b1675c9eb4b5726"},"name":"NEWTON-WELLESLEY HOSPITAL","city":"NEWTON","address":"2014 WASHINGTON STREET","state":"MA","zip":2462,"location":{"coordinates":[-71.246,42.3312000000001],"type":"Point"}}
{"_id":{"$oid":"5c7ac5cb0b1675c9eb4b5727"},"name":"METROWEST MEDICAL CENTER - LEONARD MORSE CAMPUS","city":"NATICK","address":"67 UNION STREET","state":"MA","zip":1760,"location":{"coordinates":[-71.3355999999999,42.28],"type":"Point"}}
{"_id":{"$oid":"5c7ac5cb0b1675c9eb4b5728"},"name":"MORTON HOSPITAL AND MEDICAL CENTER","city":"TAUNTON","address":"88 WASHINGTON STREET","state":"MA","zip":2780,"location":{"coordinates":[-71.0945,41.9062000000001],"type":"Point"}}
{"_id":{"$oid":"5c7ac5cb0b1675c9eb4b5729"},"name":"NASHOBA VALLEY MEDICAL CENTER","city":"AYER","address":"200 GROTON ROAD","state":"MA","zip":1432,"location":{"coordinates":[-71.5739,42.5775],"type":"Point"}}
{"_id":{"$oid":"5c7ac5cb0b1675c9eb4b572a"},"name":"NORTHEAST HOSPITAL CORPORATION - BEVERLY CAMPUS","city":"BEVERLY","address":"85 HERRICK STREET","state":"MA","zip":1915,"location":{"coordinates":[-70.8756999999999,42.5641000000001],"type":"Point"}}
{"_id":{"$oid":"5c7ac5cb0b1675c9eb4b572b"},"name":"SAINT ANNE'S HOSPITAL","city":"FALL RIVER","address":"795 MIDDLE STREET","state":"MA","zip":2721,"location":{"coordinates":[-71.1636999999999,41.6926],"type":"Point"}}
{"_id":{"$oid":"5c7ac5cb0b1675c9eb4b572c"},"name":"SAINT VINCENT HOSPITAL","city":"WORCESTER","address":"123 SUMMER STREET","state":"MA","zip":1608,"location":{"coordinates":[-71.7915,42.2498000000001],"type":"Point"}}
{"_id":{"$oid":"5c7ac5cb0b1675c9eb4b572d"},"name":"MARTHA'S VINEYARD HOSPITAL","city":"OAK BLUFFS","address":"ONE HOSPITAL ROAD","state":"MA","zip":2557,"location":{"coordinates":[-70.5798,41.4608000000001],"type":"Point"}}
{"_id":{"$oid":"5c7ac5cb0b1675c9eb4b572e"},"name":"SOUTH SHORE HOSPITAL","city":"WEYMOUTH","address":"55 FOGG ROAD","state":"MA","zip":2190,"location":{"coordinates":[-70.9541,42.176],"type":"Point"}}
{"_id":{"$oid":"5c7ac5cb0b1675c9eb4b572f"},"name":"SOUTHCOAST HOSPITALS GROUP - CHARLTON MEMORIAL HOSPITAL","city":"FALL RIVER","address":"363 HIGHLAND AVENUE","state":"MA","zip":2720,"location":{"coordinates":[-71.146,41.7094000000001],"type":"Point"}}
{"_id":{"$oid":"5c7ac5cb0b1675c9eb4b5730"},"name":"SOUTHCOAST HOSPITALS GROUP - ST. LUKE'S HOSPITAL","city":"NEW BEDFORD","address":"101 PAGE STREET","state":"MA","zip":2740,"location":{"coordinates":[-70.9383999999999,41.6264],"type":"Point"}}
{"_id":{"$oid":"5c7ac5cb0b1675c9eb4b5731"},"name":"STURDY MEMORIAL HOSPITAL","city":"ATTLEBORO","address":"211 PARK STREET","state":"MA","zip":2703,"location":{"coordinates":[-71.2748,41.9420000000001],"type":"Point"}}
{"_id":{"$oid":"5c7ac5cb0b1675c9eb4b5732"},"name":"ST. ELIZABETH'S MEDICAL CENTER","city":"BOSTON","address":"736 CAMBRIDGE STREET","state":"MA","zip":2135,"location":{"coordinates":[-71.1485,42.3487000000001],"type":"Point"}}
{"_id":{"$oid":"5c7ac5cb0b1675c9eb4b5733"},"name":"WINCHESTER HOSPITAL","city":"WINCHESTER","address":"41 HIGHLAND AVENUE","state":"MA","zip":1890,"location":{"coordinates":[-71.1228,42.4660000000001],"type":"Point"}}
{"_id":{"$oid":"5c7ac5cb0b1675c9eb4b5734"},"name":"ALEXANDER HOSPITAL","city":"HICKORY","address":"PO BOX 2568","state":"NC","zip":28603,"location":{"coordinates":[-81.291107606,35.6955944850001],"type":"Point"}}
{"_id":{"$oid":"5c7ac5cb0b1675c9eb4b5735"},"name":"DAVIE COUNTY HOSPITAL","city":"MOCKSVILLE","address":"223 HOSPITAL STREET","state":"NC","zip":27028,"location":{"coordinates":[-80.5717914159999,35.899376197],"type":"Point"}}
{"_id":{"$oid":"5c7ac5cb0b1675c9eb4b5736"},"name":"DAVIE MEDICAL CENTER","city":"BERMUDA RUN","address":"MEDICAL CENTER BLVD","state":"NC","zip":27006,"location":{"coordinates":[-80.4475896879999,36.0094038940001],"type":"Point"}}
{"_id":{"$oid":"5c7ac5cb0b1675c9eb4b5737"},"name":"CAVHCS EAST CAMPUS","city":"MONTGOMERY","address":"8105 VETERANS WAY","state":"AL","zip":36109,"location":{"coordinates":[-86.129219,32.3577100000001],"type":"Point"}}
{"_id":{"$oid":"5c7ac5cb0b1675c9eb4b5738"},"name":"NORTHPORT MEDICAL CENTER","city":"NORTHPORT","address":"2700 HOSPITAL DRIVE","state":"AL","zip":35476,"location":{"coordinates":[-87.570910898,33.23398145],"type":"Point"}}
{"_id":{"$oid":"5c7ac5cb0b1675c9eb4b5739"},"name":"SHOALS HOSPITAL","city":"MUSCLE SHOALS","address":"201 W. AVALON AVENUE","state":"AL","zip":35661,"location":{"coordinates":[-87.67621342,34.747192958],"type":"Point"}}
{"_id":{"$oid":"5c7ac5cb0b1675c9eb4b573a"},"name":"NORTH MISSISSIPPI MEDICAL CENTER - HAMILTON","city":"HAMILTON","address":"1256 MILITARY STREET SOUTH","state":"AL","zip":35570,"location":{"coordinates":[-87.990768777,34.1259771800001],"type":"Point"}}
{"_id":{"$oid":"5c7ac5cb0b1675c9eb4b573b"},"name":"WEDOWEE HOSPITAL","city":"WEDOWEE","address":"209 NORTH MAIN STREET","state":"AL","zip":36278,"location":{"coordinates":[-85.485452466,33.3114042180001],"type":"Point"}}
{"_id":{"$oid":"5c7ac5cb0b1675c9eb4b573c"},"name":"SHELBY BAPTIST MEDICAL CENTER","city":"ALABASTER","address":"1000 FIRST STREET, NORTH","state":"AL","zip":35007,"location":{"coordinates":[-86.8130430149999,33.252364867],"type":"Point"}}
{"_id":{"$oid":"5c7ac5cb0b1675c9eb4b573d"},"name":"ELIZA COFFEE MEMORIAL HOSPITAL","city":"FLORENCE","address":"205 MARENGO STREET","state":"AL","zip":35631,"location":{"coordinates":[-87.682850174,34.793858034],"type":"Point"}}
{"_id":{"$oid":"5c7ac5cb0b1675c9eb4b573e"},"name":"MARSHALL MEDICAL CENTER NORTH","city":"GUNTERSVILLE","address":"8000 ALABAMA HIGHWAY 69","state":"AL","zip":35976,"location":{"coordinates":[-86.421351527,34.3649133480001],"type":"Point"}}
{"_id":{"$oid":"5c7ac5cb0b1675c9eb4b573f"},"name":"SOUTHEAST ALABAMA MEDICAL CENTER","city":"DOTHAN","address":"1108 ROSS CLARK CIRCLE","state":"AL","zip":36301,"location":{"coordinates":[-85.3636311239999,31.2163036480001],"type":"Point"}}
{"_id":{"$oid":"5c7ac5cb0b1675c9eb4b5740"},"name":"MEDICAL CENTER BARBOUR","city":"EUFAULA","address":"820 WEST WASHINGTON STREET","state":"AL","zip":36027,"location":{"coordinates":[-85.156405419,31.8886450800001],"type":"Point"}}
{"_id":{"$oid":"5c7ac5cb0b1675c9eb4b5741"},"name":"GROVE HILL MEMORIAL HOSPITAL","city":"GROVE HILL","address":"295 JACKSON HIGHWAY S","state":"AL","zip":36451,"location":{"coordinates":[-87.776024627,31.694302296],"type":"Point"}}
{"_id":{"$oid":"5c7ac5cc0b1675c9eb4b5742"},"name":"CAVHCS WEST CAMPUS","city":"MONTGOMERY","address":"215 PERRY HILL RD","state":"AL","zip":36109,"location":{"coordinates":[-86.2436852179999,32.3769911360001],"type":"Point"}}
{"_id":{"$oid":"5c7ac5cc0b1675c9eb4b5743"},"name":"ATMORE COMMUNITY HOSPITAL","city":"ATMORE","address":"401 MEDICAL PARK DR.","state":"AL","zip":36502,"location":{"coordinates":[-87.478798513,31.0170238650001],"type":"Point"}}
{"_id":{"$oid":"5c7ac5cc0b1675c9eb4b5744"},"name":"BEACON CHILDREN'S HOSPITAL","city":"LUVERNE","address":"150 HOSPITAL DRIVE","state":"AL","zip":36049,"location":{"coordinates":[-86.26319151,31.694588547],"type":"Point"}}
{"_id":{"$oid":"5c7ac5cc0b1675c9eb4b5745"},"name":"THOMAS HOSPITAL","city":"FAIRHOPE","address":"750 MORPHY AVENUE","state":"AL","zip":36532,"location":{"coordinates":[-87.8894474369999,30.5188790280001],"type":"Point"}}
{"_id":{"$oid":"5c7ac5cc0b1675c9eb4b5746"},"name":"GADSDEN REGIONAL MEDICAL CENTER","city":"GADSDEN","address":"1007 GOODYEAR AVENUE","state":"AL","zip":35903,"location":{"coordinates":[-85.965982141,34.0077362820001],"type":"Point"}}
{"_id":{"$oid":"5c7ac5cc0b1675c9eb4b5747"},"name":"LAKE MARTIN COMMUNITY HOSPITAL","city":"DADEVILLE","address":"201 MARIARDEN ROAD","state":"AL","zip":36853,"location":{"coordinates":[-85.7411399059999,32.8185985690001],"type":"Point"}}
{"_id":{"$oid":"5c7ac5cc0b1675c9eb4b5748"},"name":"RUSSELL HOSPITAL","city":"ALEXANDER CITY","address":"3316 HIGHWAY 280","state":"AL","zip":35010,"location":{"coordinates":[-85.969566148,32.9302132720001],"type":"Point"}}
{"_id":{"$oid":"5c7ac5cc0b1675c9eb4b5749"},"name":"CHEROKEE MEDICAL CENTER","city":"CENTRE","address":"400 NORTHWOOD DRIVE","state":"AL","zip":35960,"location":{"coordinates":[-85.6510887759999,34.161458302],"type":"Point"}}
{"_id":{"$oid":"5c7ac5cc0b1675c9eb4b574a"},"name":"NORTH ALABAMA SPECIALTY HOSPITAL","city":"ATHENS","address":"700 WEST MARKET ST,2ND FLOOR","state":"AL","zip":35611,"location":{"coordinates":[-86.978872603,34.8042455780001],"type":"Point"}}
{"_id":{"$oid":"5c7ac5cc0b1675c9eb4b574b"},"name":"EASTPOINTE HOSPITAL","city":"DAPHNE","address":"7400 ROPER LANE","state":"AL","zip":36526,"location":{"coordinates":[-87.895139097,30.635289146],"type":"Point"}}
{"_id":{"$oid":"5c7ac5cc0b1675c9eb4b574c"},"name":"SOUTH BALDWIN REGIONAL MEDICAL CENTER","city":"FOLEY","address":"1613 NORTH MCKENZIE STREET","state":"AL","zip":36535,"location":{"coordinates":[-87.684685647,30.425835684],"type":"Point"}}
{"_id":{"$oid":"5c7ac5cc0b1675c9eb4b574d"},"name":"BAYPOINTE BEHAVIORAL HEALTH","city":"MOBILE","address":"5800 SOUTHLAND DRIVE","state":"AL","zip":36693,"location":{"coordinates":[-88.178008125,30.6248084910001],"type":"Point"}}
{"_id":{"$oid":"5c7ac5cc0b1675c9eb4b574e"},"name":"NOLAND HOSPITAL ANNISTON","city":"ANNISTON","address":"400 EAST 10TH STREET","state":"AL","zip":36202,"location":{"coordinates":[-85.823239616,33.655655193],"type":"Point"}}
{"_id":{"$oid":"5c7ac5cc0b1675c9eb4b574f"},"name":"NORTHEAST ALABAMA REGIONAL MEDICAL CENTER","city":"ANNISTON","address":"400 EAST TENTH STREET","state":"AL","zip":36202,"location":{"coordinates":[-85.8232421389999,33.6555752560001],"type":"Point"}}
{"_id":{"$oid":"5c7ac5cc0b1675c9eb4b5750"},"name":"NORTH BALDWIN INFIRMARY","city":"BAY MINETTE","address":"1815 HAND AVENUE","state":"AL","zip":36507,"location":{"coordinates":[-87.785022496,30.903934362],"type":"Point"}}
{"_id":{"$oid":"5c7ac5cc0b1675c9eb4b5751"},"name":"CHILDREN'S HOSPITAL OF ALABAMA","city":"BIRMINGHAM","address":"1600 SEVENTH AVENUE, SOUTH","state":"AL","zip":35233,"location":{"coordinates":[-86.8051591399999,33.504048154],"type":"Point"}}
{"_id":{"$oid":"5c7ac5cc0b1675c9eb4b5752"},"name":"HEALTHSOUTH LAKESHORE REHABILITATION HOSPITAL","city":"BIRMINGHAM","address":"3800 RIDGEWAY DRIVE","state":"AL","zip":35209,"location":{"coordinates":[-86.788334989,33.469115849],"type":"Point"}}
{"_id":{"$oid":"5c7ac5cc0b1675c9eb4b5753"},"name":"ATHENS LIMESTONE HOSPITAL","city":"ATHENS","address":"700 WEST MARKET STREET","state":"AL","zip":35611,"location":{"coordinates":[-86.978407208,34.8041639300001],"type":"Point"}}
{"_id":{"$oid":"5c7ac5cc0b1675c9eb4b5754"},"name":"BROOKWOOD MEDICAL CENTER","city":"BIRMINGHAM","address":"2010 BROOKWOOD MEDICAL CENTER DRIVE","state":"AL","zip":35259,"location":{"coordinates":[-86.776253389,33.463730942],"type":"Point"}}
{"_id":{"$oid":"5c7ac5cc0b1675c9eb4b5755"},"name":"VA MEDICAL CENTER - BIRMINGHAM","city":"BIRMINGHAM","address":"700 S 19TH ST S","state":"AL","zip":35233,"location":{"coordinates":[-86.8013461209999,33.5044482610001],"type":"Point"}}
{"_id":{"$oid":"5c7ac5cc0b1675c9eb4b5756"},"name":"HILL CREST BEHAVIORAL HEALTH SERVICES","city":"BIRMINGHAM","address":"6869 FIFTH AVENUE, SOUTH","state":"AL","zip":35212,"location":{"coordinates":[-86.730183296,33.5488342840001],"type":"Point"}}
{"_id":{"$oid":"5c7ac5cc0b1675c9eb4b5757"},"name":"NOLAND HOSPITAL BIRMINGHAM","city":"BIRMINGHAM","address":"50 MEDICAL PARK EAST DRIVE","state":"AL","zip":35261,"location":{"coordinates":[-86.6860220629999,33.4149192100001],"type":"Point"}}
{"_id":{"$oid":"5c7ac5cc0b1675c9eb4b5758"},"name":"SELECT SPECIALTY HOSPITAL-BIRMINGHAM","city":"BIRMINGHAM","address":"800 MONTCLAIR ROAD","state":"AL","zip":35213,"location":{"coordinates":[-86.777332621,33.4641039370001],"type":"Point"}}
{"_id":{"$oid":"5c7ac5cc0b1675c9eb4b5759"},"name":"ST. VINCENT'S BIRMINGHAM","city":"BIRMINGHAM","address":"810 ST. VINCENT'S DRIVE","state":"AL","zip":35205,"location":{"coordinates":[-86.789121531,33.507477169],"type":"Point"}}
{"_id":{"$oid":"5c7ac5cc0b1675c9eb4b575a"},"name":"ST. VINCENT'S EAST","city":"BIRMINGHAM","address":"50 MEDICAL PARK EAST DRIVE","state":"AL","zip":35235,"location":{"coordinates":[-86.6676110189999,33.596154515],"type":"Point"}}
{"_id":{"$oid":"5c7ac5cc0b1675c9eb4b575b"},"name":"UNIVERSITY OF ALABAMA HOSPITAL","city":"BIRMINGHAM","address":"619 SOUTH 19TH STREET","state":"AL","zip":35233,"location":{"coordinates":[-86.8020353969999,33.505603292],"type":"Point"}}
{"_id":{"$oid":"5c7ac5cc0b1675c9eb4b575c"},"name":"MARSHALL MEDICAL CENTER SOUTH","city":"BOAZ","address":"2505 U.S. HIGHWAY 431, SOUTH","state":"AL","zip":35957,"location":{"coordinates":[-86.160628168,34.2214658500001],"type":"Point"}}
{"_id":{"$oid":"5c7ac5cc0b1675c9eb4b575d"},"name":"D. W. MCMILLAN MEMORIAL HOSPITAL","city":"BREWTON","address":"1301 BELLEVILLE AVENUE","state":"AL","zip":36427,"location":{"coordinates":[-87.0734993039999,31.127033909],"type":"Point"}}
{"_id":{"$oid":"5c7ac5cc0b1675c9eb4b575e"},"name":"J. PAUL JONES HOSPITAL","city":"CAMDEN","address":"317 MCWILLIAMS AVENUE","state":"AL","zip":36726,"location":{"coordinates":[-87.300257836,31.9975251480001],"type":"Point"}}
{"_id":{"$oid":"5c7ac5cc0b1675c9eb4b575f"},"name":"PICKENS COUNTY MEDICAL CENTER","city":"CARROLLTON","address":"241 ROBERT K. WILSON DRIVE","state":"AL","zip":35447,"location":{"coordinates":[-88.0886357479999,33.2744756700001],"type":"Point"}}
{"_id":{"$oid":"5c7ac5cc0b1675c9eb4b5760"},"name":"BIBB MEDICAL CENTER","city":"CENTREVILLE","address":"208 PIERSON AVENUE","state":"AL","zip":35042,"location":{"coordinates":[-87.1483112339999,32.9513583660001],"type":"Point"}}
{"_id":{"$oid":"5c7ac5cc0b1675c9eb4b5761"},"name":"WASHINGTON COUNTY HOSPITAL","city":"CHATOM","address":"14600 ST. STEPHENS AVENUE","state":"AL","zip":36518,"location":{"coordinates":[-88.235079893,31.459538148],"type":"Point"}}
{"_id":{"$oid":"5c7ac5cc0b1675c9eb4b5762"},"name":"BRYAN W. WHITFIELD MEMORIAL HOSPITAL","city":"DEMOPOLIS","address":"105 U.S. HIGHWAY 80, EAST","state":"AL","zip":36732,"location":{"coordinates":[-87.8363988,32.504788531],"type":"Point"}}
{"_id":{"$oid":"5c7ac5cc0b1675c9eb4b5763"},"name":"LAUREL OAKS BEHAVIORAL HEALTH CENTER","city":"DOTHAN","address":"700 EAST COTTONWOOD ROAD","state":"AL","zip":36301,"location":{"coordinates":[-85.3846011159999,31.203815637],"type":"Point"}}
{"_id":{"$oid":"5c7ac5cc0b1675c9eb4b5764"},"name":"NOLAND HOSPITAL DOTHAN, LLC","city":"DOTHAN","address":"1108 ROSS CLARK CIRCLE,4TH FLOOR","state":"AL","zip":36302,"location":{"coordinates":[-85.36294421,31.216289171],"type":"Point"}}
{"_id":{"$oid":"5c7ac5cc0b1675c9eb4b5765"},"name":"MEDICAL CENTER ENTERPRISE","city":"ENTERPRISE","address":"400 NORTH EDWARDS STREET","state":"AL","zip":36330,"location":{"coordinates":[-85.855369739,31.318772396],"type":"Point"}}
{"_id":{"$oid":"5c7ac5cc0b1675c9eb4b5766"},"name":"EVERGREEN MEDICAL CENTER","city":"EVERGREEN","address":"101 CRESTVIEW AVENUE","state":"AL","zip":36401,"location":{"coordinates":[-86.940483587,31.4307985720001],"type":"Point"}}
{"_id":{"$oid":"5c7ac5cc0b1675c9eb4b5767"},"name":"FAYETTE MEDICAL CENTER","city":"FAYETTE","address":"1653 TEMPLE AVENUE, NORTH","state":"AL","zip":35555,"location":{"coordinates":[-87.8246889819999,33.70817814],"type":"Point"}}
{"_id":{"$oid":"5c7ac5cc0b1675c9eb4b5768"},"name":"MOUNTAIN VIEW HOSPITAL","city":"GADSDEN","address":"3001 SCENIC HIGHWAY","state":"AL","zip":35904,"location":{"coordinates":[-86.019766069,34.072425745],"type":"Point"}}
{"_id":{"$oid":"5c7ac5cc0b1675c9eb4b5769"},"name":"WIREGRASS MEDICAL CENTER","city":"GENEVA","address":"1200 WEST MAPLE AVENUE","state":"AL","zip":36340,"location":{"coordinates":[-85.892536692,31.048793989],"type":"Point"}}
{"_id":{"$oid":"5c7ac5cc0b1675c9eb4b576a"},"name":"CRESTWOOD MEDICAL CENTER","city":"HUNTSVILLE","address":"ONE HOSPITAL DRIVE","state":"AL","zip":35801,"location":{"coordinates":[-86.572171543,34.693611397],"type":"Point"}}
{"_id":{"$oid":"5c7ac5cc0b1675c9eb4b576b"},"name":"BEHAVIORAL HEALTHCARE CENTER AT HUNTSVILLE, INC.","city":"HUNTSVILLE","address":"5315 MILLENNIUM DRIVE","state":"AL","zip":35806,"location":{"coordinates":[-86.665696354,34.75317024],"type":"Point"}}
{"_id":{"$oid":"5c7ac5cc0b1675c9eb4b576c"},"name":"FOX ARMY HEALTH CENTER: LAMBERT RHONDA W","city":"HUNTSVILLE","address":"4100 GOSS RD SW","state":"AL","zip":35890,"location":{"coordinates":[-86.660230887,34.6962142020001],"type":"Point"}}
{"_id":{"$oid":"5c7ac5cc0b1675c9eb4b576d"},"name":"L. V. STABLER MEMORIAL HOSPITAL","city":"GREENVILLE","address":"29 L. V. STABLER DRIVE","state":"AL","zip":36037,"location":{"coordinates":[-86.646364202,31.829034402],"type":"Point"}}
{"_id":{"$oid":"5c7ac5cc0b1675c9eb4b576e"},"name":"HUNTSVILLE HOSPITAL, THE","city":"HUNTSVILLE","address":"101 SIVLEY ROAD","state":"AL","zip":35801,"location":{"coordinates":[-86.580805509,34.721433099],"type":"Point"}}
{"_id":{"$oid":"5c7ac5cc0b1675c9eb4b576f"},"name":"JACKSON MEDICAL CENTER","city":"JACKSON","address":"220 HOSPITAL DRIVE","state":"AL","zip":36545,"location":{"coordinates":[-87.895134564,31.53106846],"type":"Point"}}
{"_id":{"$oid":"5c7ac5cc0b1675c9eb4b5770"},"name":"RMC JACKSONVILLE","city":"JACKSONVILLE","address":"1701 SOUTH PELHAM ROAD","state":"AL","zip":36265,"location":{"coordinates":[-85.76355079,33.784932246],"type":"Point"}}
{"_id":{"$oid":"5c7ac5cc0b1675c9eb4b5771"},"name":"RIVERVIEW REGIONAL MEDICAL CENTER","city":"GADSDEN","address":"600 SOUTH THIRD STREET","state":"AL","zip":35999,"location":{"coordinates":[-86.00342706,34.0043255430001],"type":"Point"}}
{"_id":{"$oid":"5c7ac5cc0b1675c9eb4b5772"},"name":"HALE COUNTY HOSPITAL","city":"GREENSBORO","address":"508 GREENE STREET","state":"AL","zip":36744,"location":{"coordinates":[-87.586934194,32.695372236],"type":"Point"}}
{"_id":{"$oid":"5c7ac5cc0b1675c9eb4b5773"},"name":"WALKER BAPTIST MEDICAL CENTER","city":"JASPER","address":"3400 HIGHWAY 78, EAST","state":"AL","zip":35502,"location":{"coordinates":[-87.235999582,33.8427289040001],"type":"Point"}}
{"_id":{"$oid":"5c7ac5cc0b1675c9eb4b5774"},"name":"CRENSHAW COMMUNITY HOSPITAL","city":"LUVERNE","address":"101 HOSPITAL CIRCLE","state":"AL","zip":36049,"location":{"coordinates":[-86.265045701,31.693544069],"type":"Point"}}
{"_id":{"$oid":"5c7ac5cc0b1675c9eb4b5775"},"name":"MOBILE INFIRMARY MEDICAL CENTER","city":"MOBILE","address":"5 MOBILE INFIRMARY CENTER","state":"AL","zip":36652,"location":{"coordinates":[-88.0797761919999,30.695724958],"type":"Point"}}
{"_id":{"$oid":"5c7ac5cc0b1675c9eb4b5776"},"name":"SPRINGHILL MEMORIAL HOSPITAL","city":"MOBILE","address":"3719 DAUPHIN STREET","state":"AL","zip":36608,"location":{"coordinates":[-88.131336291,30.684517488],"type":"Point"}}
{"_id":{"$oid":"5c7ac5cc0b1675c9eb4b5777"},"name":"BAPTIST MEDICAL CENTER SOUTH","city":"MONTGOMERY","address":"2105 EAST SOUTH BOULEVARD","state":"AL","zip":36111,"location":{"coordinates":[-86.27754935,32.3281539480001],"type":"Point"}}
{"_id":{"$oid":"5c7ac5cc0b1675c9eb4b5778"},"name":"HEALTHSOUTH REHABILITATION HOSPITAL OF MONTGOMERY","city":"MONTGOMERY","address":"4465 NARROW LANE ROAD","state":"AL","zip":36116,"location":{"coordinates":[-86.280709803,32.3191069820001],"type":"Point"}}
{"_id":{"$oid":"5c7ac5cc0b1675c9eb4b5779"},"name":"JACKSON HOSPITAL AND CLINIC","city":"MONTGOMERY","address":"1725 PINE STREET","state":"AL","zip":36106,"location":{"coordinates":[-86.2853855449999,32.3669529960001],"type":"Point"}}
{"_id":{"$oid":"5c7ac5cc0b1675c9eb4b577a"},"name":"NOLAND HOSPITAL MONTGOMERY, LLC","city":"MONTGOMERY","address":"1725 PINE STREET,5TH FLOOR, NORTH WING","state":"AL","zip":36106,"location":{"coordinates":[-86.285790053,32.3669693300001],"type":"Point"}}
{"_id":{"$oid":"5c7ac5cc0b1675c9eb4b577b"},"name":"MIZELL MEMORIAL HOSPITAL","city":"OPP","address":"702 MAIN STREET","state":"AL","zip":36467,"location":{"coordinates":[-86.254526923,31.2919582380001],"type":"Point"}}
{"_id":{"$oid":"5c7ac5cc0b1675c9eb4b577c"},"name":"DALE MEDICAL CENTER","city":"OZARK","address":"126 HOSPITAL AVENUE","state":"AL","zip":36360,"location":{"coordinates":[-85.632088035,31.4515766550001],"type":"Point"}}
{"_id":{"$oid":"5c7ac5cc0b1675c9eb4b577d"},"name":"ST. VINCENT'S ST.CLAIR","city":"PELL CITY","address":"7063 VETERANS PARKWAY","state":"AL","zip":35125,"location":{"coordinates":[-86.2774691019999,33.605110768],"type":"Point"}}
{"_id":{"$oid":"5c7ac5cc0b1675c9eb4b577e"},"name":"RED BAY HOSPITAL","city":"RED BAY","address":"211 HOSPITAL ROAD","state":"AL","zip":35582,"location":{"coordinates":[-88.1473250619999,34.458105759],"type":"Point"}}
{"_id":{"$oid":"5c7ac5cc0b1675c9eb4b577f"},"name":"RUSSELLVILLE HOSPITAL","city":"RUSSELLVILLE","address":"15155 HIGHWAY 43","state":"AL","zip":35653,"location":{"coordinates":[-87.718386067,34.5108181190001],"type":"Point"}}
{"_id":{"$oid":"5c7ac5cc0b1675c9eb4b5780"},"name":"HIGHLANDS MEDICAL CENTER","city":"SCOTTSBORO","address":"380 WOODS COVE ROAD","state":"AL","zip":35768,"location":{"coordinates":[-86.047490796,34.6620379330001],"type":"Point"}}
{"_id":{"$oid":"5c7ac5cc0b1675c9eb4b5781"},"name":"VAUGHAN REGIONAL MEDICAL CENTER-PARKWAY CAMPUS","city":"SELMA","address":"1015 MEDICAL CENTER PARKWAY","state":"AL","zip":36701,"location":{"coordinates":[-87.055973046,32.4294652130001],"type":"Point"}}
{"_id":{"$oid":"5c7ac5cc0b1675c9eb4b5782"},"name":"HELEN KELLER MEMORIAL HOSPITAL","city":"SHEFFIELD","address":"1301 S.MONTGOMERY AVENUE","state":"AL","zip":35660,"location":{"coordinates":[-87.700261461,34.745950151],"type":"Point"}}
{"_id":{"$oid":"5c7ac5cc0b1675c9eb4b5783"},"name":"COOSA VALLEY MEDICAL CENTER","city":"SYLACAUGA","address":"315 WEST HICKORY STREET","state":"AL","zip":35150,"location":{"coordinates":[-86.2554875819999,33.164560226],"type":"Point"}}
{"_id":{"$oid":"5c7ac5cc0b1675c9eb4b5784"},"name":"CITIZENS BAPTIST MEDICAL CENTER","city":"TALLADEGA","address":"604 STONE AVENUE","state":"AL","zip":35161,"location":{"coordinates":[-86.0907833959999,33.4402768210001],"type":"Point"}}
{"_id":{"$oid":"5c7ac5cc0b1675c9eb4b5785"},"name":"MARY S. HARPER GERIATRIC PSYCHIATRY CENTER","city":"TUSCALOOSA","address":"201 UNIVERSITY BOULEVARD","state":"AL","zip":35402,"location":{"coordinates":[-87.533981,33.2190660000001],"type":"Point"}}
{"_id":{"$oid":"5c7ac5cc0b1675c9eb4b5786"},"name":"NOLAND HOSPITAL TUSCALOOSA, LLC","city":"TUSCALOOSA","address":"809 UNIVERSITY BLVD EAST,4TH FLOOR","state":"AL","zip":35401,"location":{"coordinates":[-87.5263643769999,33.205174448],"type":"Point"}}
{"_id":{"$oid":"5c7ac5cc0b1675c9eb4b5787"},"name":"VA MEDICAL CENTER - TUSCALOOSA","city":"TUSCALOOSA","address":"3701 LOOP RD E","state":"AL","zip":35401,"location":{"coordinates":[-87.488317847,33.1899356690001],"type":"Point"}}
{"_id":{"$oid":"5c7ac5cc0b1675c9eb4b5788"},"name":"CENTRAL ALABAMA VETERANS HEALTH CARE SYSTEM EAST CAMPUS","city":"TUSKEGEE","address":"2400 HOSPITAL RD","state":"AL","zip":36083,"location":{"coordinates":[-85.712148611,32.445218316],"type":"Point"}}
{"_id":{"$oid":"5c7ac5cc0b1675c9eb4b5789"},"name":"BULLOCK COUNTY HOSPITAL","city":"UNION SPRINGS","address":"102 WEST CONECUH AVENUE","state":"AL","zip":36089,"location":{"coordinates":[-85.717009326,32.146635109],"type":"Point"}}
{"_id":{"$oid":"5c7ac5cc0b1675c9eb4b578a"},"name":"ELMORE COMMUNITY HOSPITAL","city":"WETUMPKA","address":"500 HOSPITAL DRIVE","state":"AL","zip":36092,"location":{"coordinates":[-86.1863964459999,32.552266972],"type":"Point"}}
{"_id":{"$oid":"5c7ac5cc0b1675c9eb4b578b"},"name":"HILL HOSPITAL OF SUMTER COUNTY","city":"YORK","address":"751 DERBY DRIVE","state":"AL","zip":36925,"location":{"coordinates":[-88.295523761,32.4919942220001],"type":"Point"}}
{"_id":{"$oid":"5c7ac5cc0b1675c9eb4b578c"},"name":"STAMFORD HOSPITAL","city":"STAMFORD","address":"30 SHELBURNE ROAD,PO BOX 9317","state":"CT","zip":6904,"location":{"coordinates":[-73.5531250769999,41.0550166850001],"type":"Point"}}
{"_id":{"$oid":"5c7ac5cc0b1675c9eb4b578d"},"name":"NORWALK HOSPITAL","city":"NORWALK","address":"34 MAPLE ST","state":"CT","zip":6856,"location":{"coordinates":[-73.422623625,41.111596648],"type":"Point"}}
{"_id":{"$oid":"5c7ac5cc0b1675c9eb4b578e"},"name":"MAJOR HOSPITAL","city":"SHELBYVILLE","address":"150 W WASHINGTON ST","state":"IN","zip":46176,"location":{"coordinates":[-85.781051465,39.5252733830001],"type":"Point"}}
{"_id":{"$oid":"5c7ac5cc0b1675c9eb4b578f"},"name":"MEDICAL BEHAVIORAL HOSPITAL - MISHAWAKA","city":"MISHAWAKA","address":"1625 E JEFFERSON BLVD","state":"IN","zip":46545,"location":{"coordinates":[-86.158872752,41.6712483520001],"type":"Point"}}
{"_id":{"$oid":"5c7ac5cc0b1675c9eb4b5790"},"name":"COMMUNITY WESTVIEW HOSPITAL","city":"INDIANAPOLIS","address":"3630 GUION RD","state":"IN","zip":46222,"location":{"coordinates":[-86.222438396,39.820940711],"type":"Point"}}
{"_id":{"$oid":"5c7ac5cc0b1675c9eb4b5791"},"name":"SELECT SPECIALTY HOSPITAL-FORT WAYNE","city":"FORT WAYNE","address":"700 BROADWAY,7TH FL E","state":"IN","zip":46802,"location":{"coordinates":[-85.149166008,41.0782955230001],"type":"Point"}}
{"_id":{"$oid":"5c7ac5cc0b1675c9eb4b5792"},"name":"STRATEGIC BEHAVIORAL CENTER LELAND","city":"LELAND","address":"2050 MERCANTILE DRIVE","state":"NC","zip":28451,"location":{"coordinates":[-78.063713706,34.26075781],"type":"Point"}}
{"_id":{"$oid":"5c7ac5cc0b1675c9eb4b5793"},"name":"VERITAS COLLABORATIVE NORTH CAROLINA LLC","city":"DURHAM","address":"615 DOUGLAS STREET","state":"NC","zip":27705,"location":{"coordinates":[-78.942325379,36.009940376],"type":"Point"}}
{"_id":{"$oid":"5c7ac5cc0b1675c9eb4b5794"},"name":"OLD VINEYARD YOUTH SERVICES","city":"WINSTON SALEM","address":"3637 OLD VINEYARD ROAD","state":"NC","zip":27104,"location":{"coordinates":[-80.3185738179999,36.078334382],"type":"Point"}}
{"_id":{"$oid":"5c7ac5cc0b1675c9eb4b5795"},"name":"BEHAVIORAL HEALTH HOSPITAL","city":"GREENSBORO","address":"700 WALTER REED DRIVE","state":"NC","zip":27403,"location":{"coordinates":[-79.822456152,36.082795504],"type":"Point"}}
{"_id":{"$oid":"5c7ac5cc0b1675c9eb4b5796"},"name":"WOMEN'S HOSPITAL","city":"GREENSBORO","address":"801 GREEN VALLEY ROAD","state":"NC","zip":27408,"location":{"coordinates":[-79.817863792,36.092908213],"type":"Point"}}
{"_id":{"$oid":"5c7ac5cc0b1675c9eb4b5797"},"name":"GOOD HOPE HOSPITAL","city":"ERWIN","address":"P.O. BOX 639","state":"NC","zip":28339,"location":{"coordinates":[-78.6698028879999,35.3273632470001],"type":"Point"}}
{"_id":{"$oid":"5c7ac5cc0b1675c9eb4b5798"},"name":"HAYWOOD REGIONAL MEDICAL CENTER","city":"CLYDE","address":"262 LEROY GEORGE DRIVE","state":"NC","zip":28721,"location":{"coordinates":[-82.9425088839999,35.5253812770001],"type":"Point"}}
{"_id":{"$oid":"5c7ac5cc0b1675c9eb4b5799"},"name":"UNC LENOIR HEALTH CARE","city":"KINSTON","address":"100 AIRPORT ROAD","state":"NC","zip":28503,"location":{"coordinates":[-77.5832828119999,35.290340626],"type":"Point"}}
{"_id":{"$oid":"5c7ac5cc0b1675c9eb4b579a"},"name":"CAROLINAS HEALTHCARE SYSTEM PINEVILLE","city":"CHARLOTTE","address":"10628 PARK RD","state":"NC","zip":28210,"location":{"coordinates":[-80.871618187,35.0920121830001],"type":"Point"}}
{"_id":{"$oid":"5c7ac5cc0b1675c9eb4b579b"},"name":"CAROLINAS HEALTHCARE SYSTEM UNIVERSITY","city":"CHARLOTTE","address":"8800 NORTH TRYON STREET","state":"NC","zip":28256,"location":{"coordinates":[-80.7470479419999,35.306757427],"type":"Point"}}
{"_id":{"$oid":"5c7ac5cc0b1675c9eb4b579c"},"name":"STRATEGIC BEHAVIORAL CENTER CHARLOTTE","city":"CHARLOTTE","address":"1715 SHARON ROAD WEST","state":"NC","zip":28210,"location":{"coordinates":[-80.8716039179999,35.1208566970001],"type":"Point"}}
{"_id":{"$oid":"5c7ac5cc0b1675c9eb4b579d"},"name":"CAROLINAS MEDICAL CENTER","city":"CHARLOTTE","address":"1000 BLYTHE BOULEVARD","state":"NC","zip":28232,"location":{"coordinates":[-80.838901796,35.203899886],"type":"Point"}}
{"_id":{"$oid":"5c7ac5cc0b1675c9eb4b579e"},"name":"CAROLINAS MEDICAL CENTER FOR MENTAL HEALTH","city":"CHARLOTTE","address":"501 BILLINGSLEY RD","state":"NC","zip":28211,"location":{"coordinates":[-80.803893976,35.1920501700001],"type":"Point"}}
{"_id":{"$oid":"5c7ac5cc0b1675c9eb4b579f"},"name":"ORTHOINDY HOSPITAL","city":"INDIANAPOLIS","address":"8400 NORTHWEST BLVD","state":"IN","zip":46278,"location":{"coordinates":[-86.267216495,39.907695425],"type":"Point"}}
{"_id":{"$oid":"5c7ac5cc0b1675c9eb4b57a0"},"name":"SELECT SPECIALTY HOSPITAL- INDIANAPOLIS","city":"INDIANAPOLIS","address":"8060 KNUE ROAD","state":"IN","zip":46250,"location":{"coordinates":[-86.060493489,39.9021177990001],"type":"Point"}}
{"_id":{"$oid":"5c7ac5cc0b1675c9eb4b57a1"},"name":"LAFAYETTE REGIONAL REHABILITATION HOSPITAL","city":"LAFAYETTE","address":"950 PARK EAST BLVD","state":"IN","zip":47905,"location":{"coordinates":[-86.830032686,40.4046309500001],"type":"Point"}}
{"_id":{"$oid":"5c7ac5cc0b1675c9eb4b57a2"},"name":"ST VINCENT FISHERS HOSPITAL INC","city":"FISHERS","address":"13861 OLIO ROAD","state":"IN","zip":46037,"location":{"coordinates":[-85.9166019689999,39.9893360550001],"type":"Point"}}
{"_id":{"$oid":"5c7ac5cc0b1675c9eb4b57a3"},"name":"FRANCISCAN ST FRANCIS HEALTH - CARMEL","city":"CARMEL","address":"12188 B NORTH MERIDIAN STREET","state":"IN","zip":46032,"location":{"coordinates":[-86.158707019,39.968032054],"type":"Point"}}
{"_id":{"$oid":"5c7ac5cc0b1675c9eb4b57a4"},"name":"ESKENAZI HEALTH","city":"INDIANAPOLIS","address":"720 ESKENAZI AVENUE","state":"IN","zip":46254,"location":{"coordinates":[-86.183985886,39.777882758],"type":"Point"}}
{"_id":{"$oid":"5c7ac5cc0b1675c9eb4b57a5"},"name":"PARK CENTER, INC","city":"FORT WAYNE","address":"1909 CAREW STREET","state":"IN","zip":46805,"location":{"coordinates":[-85.1084820199999,41.0936254390001],"type":"Point"}}
{"_id":{"$oid":"5c7ac5cc0b1675c9eb4b57a6"},"name":"THE ORTHOPAEDIC HOSPITAL OF LUTHERAN HEALTH NETWOR","city":"FORT WAYNE","address":"7952 W JEFFERSON BLVD","state":"IN","zip":46804,"location":{"coordinates":[-85.239125428,41.04028484],"type":"Point"}}
{"_id":{"$oid":"5c7ac5cc0b1675c9eb4b57a7"},"name":"ASSURANCE HEALTH PSYCHIATRIC HOSPITAL","city":"ANDERSON","address":"2725 ENTERPRISE DRIVE","state":"IN","zip":46013,"location":{"coordinates":[-85.725053901,40.0378438860001],"type":"Point"}}
{"_id":{"$oid":"5c7ac5cc0b1675c9eb4b57a8"},"name":"INDIANA UNIVERSITY HEALTH","city":"INDIANAPOLIS","address":"1701 N SENATE BLVD","state":"IN","zip":46202,"location":{"coordinates":[-86.163100641,39.789801115],"type":"Point"}}
{"_id":{"$oid":"5c7ac5cc0b1675c9eb4b57a9"},"name":"ST JOSEPH HOSPITAL \u0026 HEALTH CENTER INC","city":"KOKOMO","address":"1907 W SYCAMORE ST","state":"IN","zip":46904,"location":{"coordinates":[-86.156694771,40.4860802050001],"type":"Point"}}
{"_id":{"$oid":"5c7ac5cc0b1675c9eb4b57aa"},"name":"KING'S DAUGHTERS' HEALTH","city":"MADISON","address":"1373 EAST SR 62","state":"IN","zip":47250,"location":{"coordinates":[-85.3642979649999,38.792507239],"type":"Point"}}
{"_id":{"$oid":"5c7ac5cc0b1675c9eb4b57ab"},"name":"COMMUNITY HEALTH NETWORK REHABILITATION HOSPITAL","city":"INDIANAPOLIS","address":"7343 CLEARVISTA DRIVE","state":"IN","zip":46250,"location":{"coordinates":[-86.037910708,39.8989209370001],"type":"Point"}}
{"_id":{"$oid":"5c7ac5cc0b1675c9eb4b57ac"},"name":"MERIDIAN SERVICES CORP","city":"MUNCIE","address":"2401 W UNIVERSITY AVE","state":"IN","zip":47303,"location":{"coordinates":[-85.414812362,40.196783483],"type":"Point"}}
{"_id":{"$oid":"5c7ac5cc0b1675c9eb4b57ad"},"name":"REID HOSPITAL \u0026 HEALTH CARE SERVICES","city":"RICHMOND","address":"1100 REID PKWY","state":"IN","zip":47374,"location":{"coordinates":[-84.884284517,39.864710013],"type":"Point"}}
{"_id":{"$oid":"5c7ac5cc0b1675c9eb4b57ae"},"name":"FOUR COUNTY COUNSELING CENTER","city":"LOGANSPORT","address":"1015 MICHIGAN AVE","state":"IN","zip":46947,"location":{"coordinates":[-86.362468225,40.7632903790001],"type":"Point"}}
{"_id":{"$oid":"5c7ac5cc0b1675c9eb4b57af"},"name":"MEMORIAL HOSPITAL","city":"LOGANSPORT","address":"1101 MICHIGAN AVE","state":"IN","zip":46947,"location":{"coordinates":[-86.3620203199999,40.763478766],"type":"Point"}}
{"_id":{"$oid":"5c7ac5cc0b1675c9eb4b57b0"},"name":"CLARK MEMORIAL HOSPITAL","city":"JEFFERSONVILLE","address":"1220 MISSOURI AVE","state":"IN","zip":47130,"location":{"coordinates":[-85.7486318489999,38.282255723],"type":"Point"}}
{"_id":{"$oid":"5c7ac5cc0b1675c9eb4b57b1"},"name":"KENTUCKIANA MEDICAL CENTER LLC","city":"CLARKSVILLE","address":"4601 MEDICAL PLAZA WAY","state":"IN","zip":47129,"location":{"coordinates":[-85.752433815,38.3330855930001],"type":"Point"}}
{"_id":{"$oid":"5c7ac5cc0b1675c9eb4b57b2"},"name":"PORTER REGIONAL HOSPITAL","city":"VALPARAISO","address":"85 EAST US HWY 6","state":"IN","zip":46383,"location":{"coordinates":[-87.049681709,41.553276759],"type":"Point"}}
{"_id":{"$oid":"5c7ac5cc0b1675c9eb4b57b3"},"name":"PARKVIEW LAGRANGE HOSPITAL","city":"LAGRANGE","address":"207 N TOWNLINE RD","state":"IN","zip":46761,"location":{"coordinates":[-85.4261370569999,41.6458040900001],"type":"Point"}}
{"_id":{"$oid":"5c7ac5cc0b1675c9eb4b57b4"},"name":"DUPONT HOSPITAL LLC","city":"FORT WAYNE","address":"2520 E DUPONT RD","state":"IN","zip":46825,"location":{"coordinates":[-85.108930621,41.17526916],"type":"Point"}}
{"_id":{"$oid":"5c7ac5cc0b1675c9eb4b57b5"},"name":"ADAMS MEMORIAL HOSPITAL","city":"DECATUR","address":"1100 MERCER AVE","state":"IN","zip":46733,"location":{"coordinates":[-84.9143616709999,40.81622244],"type":"Point"}}
{"_id":{"$oid":"5c7ac5cc0b1675c9eb4b57b6"},"name":"ORTHOPAEDIC HOSPITAL AT PARKVIEW NORTH LLC","city":"FORT WAYNE","address":"11130 PARKVIEW CIRCLE DR","state":"IN","zip":46845,"location":{"coordinates":[-85.1006695739999,41.1895775790001],"type":"Point"}}
{"_id":{"$oid":"5c7ac5cc0b1675c9eb4b57b7"},"name":"COLUMBUS REGIONAL HOSPITAL","city":"COLUMBUS","address":"2400 E 17TH ST","state":"IN","zip":47201,"location":{"coordinates":[-85.895463792,39.216952915],"type":"Point"}}
{"_id":{"$oid":"5c7ac5cc0b1675c9eb4b57b8"},"name":"INDIANA UNIVERSITY HEALTH BLACKFORD HOSPITAL","city":"HARTFORD CITY","address":"410 PILGRIM BLVD","state":"IN","zip":47348,"location":{"coordinates":[-85.3727225229999,40.467946044],"type":"Point"}}
{"_id":{"$oid":"5c7ac5cc0b1675c9eb4b57b9"},"name":"MARGARET MARY HEALTH","city":"BATESVILLE","address":"321 MITCHELL AVE","state":"IN","zip":47006,"location":{"coordinates":[-85.222526188,39.3050248960001],"type":"Point"}}
{"_id":{"$oid":"5c7ac5cc0b1675c9eb4b57ba"},"name":"COMMUNITY MENTAL HEALTH CENTER INC","city":"LAWRENCEBURG","address":"285 BIELBY RD","state":"IN","zip":47025,"location":{"coordinates":[-84.882533918,39.109798476],"type":"Point"}}
{"_id":{"$oid":"5c7ac5cc0b1675c9eb4b57bb"},"name":"DEARBORN COUNTY HOSPITAL","city":"LAWRENCEBURG","address":"600 WILSON CREEK RD","state":"IN","zip":47025,"location":{"coordinates":[-84.8833990479999,39.111591354],"type":"Point"}}
{"_id":{"$oid":"5c7ac5cc0b1675c9eb4b57bc"},"name":"LUTHERAN HOSPITAL OF INDIANA","city":"FORT WAYNE","address":"7950 W JEFFERSON BLVD","state":"IN","zip":46804,"location":{"coordinates":[-85.2498493959999,41.039211687],"type":"Point"}}
{"_id":{"$oid":"5c7ac5cc0b1675c9eb4b57bd"},"name":"PARKVIEW REGIONAL MEDICAL CENTER","city":"FORT WAYNE","address":"11109 PARKVIEW PLAZA DRIVE","state":"IN","zip":46805,"location":{"coordinates":[-85.101793443,41.1884519830001],"type":"Point"}}
{"_id":{"$oid":"5c7ac5cc0b1675c9eb4b57be"},"name":"DEACONESS HOSPITAL INC","city":"EVANSVILLE","address":"600 MARY ST","state":"IN","zip":47747,"location":{"coordinates":[-87.571106776,37.983739541],"type":"Point"}}
{"_id":{"$oid":"5c7ac5cc0b1675c9eb4b57bf"},"name":"DAVIESS COMMUNITY HOSPITAL","city":"WASHINGTON","address":"1314 E WALNUT ST","state":"IN","zip":47501,"location":{"coordinates":[-87.159752398,38.659613843],"type":"Point"}}
{"_id":{"$oid":"5c7ac5cc0b1675c9eb4b57c0"},"name":"PARKVIEW NOBLE HOSPITAL","city":"KENDALLVILLE","address":"401 SAWYER RD","state":"IN","zip":46755,"location":{"coordinates":[-85.2961583109999,41.4483403450001],"type":"Point"}}
{"_id":{"$oid":"5c7ac5cc0b1675c9eb4b57c1"},"name":"HEALTHSOUTH DEACONESS REHABILITATION HOSPITAL","city":"EVANSVILLE","address":"4100 COVERT AVE","state":"IN","zip":47714,"location":{"coordinates":[-87.500695412,37.956130735],"type":"Point"}}
{"_id":{"$oid":"5c7ac5cc0b1675c9eb4b57c2"},"name":"EVANSVILLE STATE HOSPITAL","city":"EVANSVILLE","address":"3400 LINCOLN AVENUE","state":"IN","zip":47714,"location":{"coordinates":[-87.501553708,37.9728535570001],"type":"Point"}}
{"_id":{"$oid":"5c7ac5cc0b1675c9eb4b57c3"},"name":"EVANSVILLE PSYCHIATRIC CHILDREN'S CENTER","city":"EVANSVILLE","address":"3300 E MORGAN AVE","state":"IN","zip":47715,"location":{"coordinates":[-87.50906592,37.9939080180001],"type":"Point"}}
{"_id":{"$oid":"5c7ac5cc0b1675c9eb4b57c4"},"name":"IU HEALTH GOSHEN HOSPITAL","city":"GOSHEN","address":"200 HIGH PARK AVE","state":"IN","zip":46526,"location":{"coordinates":[-85.830604706,41.5632920780001],"type":"Point"}}
{"_id":{"$oid":"5c7ac5cc0b1675c9eb4b57c5"},"name":"DEKALB HEALTH","city":"AUBURN","address":"1316 E SEVENTH ST","state":"IN","zip":46706,"location":{"coordinates":[-85.035394171,41.368866859],"type":"Point"}}
{"_id":{"$oid":"5c7ac5cc0b1675c9eb4b57c6"},"name":"HAMILTON CENTER INC","city":"TERRE HAUTE","address":"620 8TH AVE","state":"IN","zip":47804,"location":{"coordinates":[-87.409983622,39.485410862],"type":"Point"}}
{"_id":{"$oid":"5c7ac5cc0b1675c9eb4b57c7"},"name":"MEMORIAL HOSPITAL AND HEALTH CARE CENTER","city":"JASPER","address":"800 W 9TH ST","state":"IN","zip":47546,"location":{"coordinates":[-86.9412294109999,38.395012169],"type":"Point"}}
{"_id":{"$oid":"5c7ac5cc0b1675c9eb4b57c8"},"name":"OAKLAWN PSYCHIATRIC CENTER INC","city":"GOSHEN","address":"330 LAKEVIEW DR","state":"IN","zip":46527,"location":{"coordinates":[-85.839485402,41.6036041190001],"type":"Point"}}
{"_id":{"$oid":"5c7ac5cc0b1675c9eb4b57c9"},"name":"DECATUR COUNTY MEMORIAL HOSPITAL","city":"GREENSBURG","address":"720 N LINCOLN ST","state":"IN","zip":47240,"location":{"coordinates":[-85.478711943,39.3442238870001],"type":"Point"}}
{"_id":{"$oid":"5c7ac5cc0b1675c9eb4b57ca"},"name":"NORTHEASTERN CENTER","city":"AUBURN","address":"1850 WESLEY RD","state":"IN","zip":46706,"location":{"coordinates":[-85.029953851,41.3709560510001],"type":"Point"}}
{"_id":{"$oid":"5c7ac5cc0b1675c9eb4b57cb"},"name":"CENTRAL INDIANA AMG SPECIALTY HOSPITAL LLC","city":"MUNCIE","address":"2401 W UNIVERSITY AVE,8TH FL","state":"IN","zip":47303,"location":{"coordinates":[-85.413991448,40.1967418420001],"type":"Point"}}
{"_id":{"$oid":"5c7ac5cc0b1675c9eb4b57cc"},"name":"INDIANA UNIVERSITY HEALTH BALL MEMORIAL HOSPITAL","city":"MUNCIE","address":"2401 UNIVERSITY AVE","state":"IN","zip":47303,"location":{"coordinates":[-85.415555943,40.196777534],"type":"Point"}}
{"_id":{"$oid":"5c7ac5cc0b1675c9eb4b57cd"},"name":"FRANCISCAN ST FRANCIS HEALTH - MOORESVILLE","city":"MOORESVILLE","address":"1201 HADLEY RD","state":"IN","zip":46158,"location":{"coordinates":[-86.355692529,39.6078571130001],"type":"Point"}}
{"_id":{"$oid":"5c7ac5cc0b1675c9eb4b57ce"},"name":"DUKES MEMORIAL HOSPITAL","city":"PERU","address":"275 W 12TH ST","state":"IN","zip":46970,"location":{"coordinates":[-86.082403798,40.7566462830001],"type":"Point"}}
{"_id":{"$oid":"5c7ac5cc0b1675c9eb4b57cf"},"name":"BLOOMINGTON MEADOWS HOSPITAL","city":"BLOOMINGTON","address":"3600 N PROW RD","state":"IN","zip":47404,"location":{"coordinates":[-86.550922129,39.205979514],"type":"Point"}}
{"_id":{"$oid":"5c7ac5cc0b1675c9eb4b57d0"},"name":"KOSCIUSKO COMMUNITY HOSPITAL","city":"WARSAW","address":"2101 E DUBOIS DR","state":"IN","zip":46580,"location":{"coordinates":[-85.8288442419999,41.2483438150001],"type":"Point"}}
{"_id":{"$oid":"5c7ac5cc0b1675c9eb4b57d1"},"name":"BRENTWOOD MEADOWS LLC","city":"NEWBURGH","address":"4488 ROSLIN RD","state":"IN","zip":47630,"location":{"coordinates":[-87.331528503,37.992909968],"type":"Point"}}
{"_id":{"$oid":"5c7ac5cc0b1675c9eb4b57d2"},"name":"BLUFFTON REGIONAL MEDICAL CENTER","city":"BLUFFTON","address":"303 S MAIN ST","state":"IN","zip":46714,"location":{"coordinates":[-85.170774991,40.737354839],"type":"Point"}}
{"_id":{"$oid":"5c7ac5cc0b1675c9eb4b57d3"},"name":"COMMUNITY HOSPITAL","city":"MUNSTER","address":"901 MACARTHUR BLVD","state":"IN","zip":46321,"location":{"coordinates":[-87.505909606,41.5506175090001],"type":"Point"}}
{"_id":{"$oid":"5c7ac5cc0b1675c9eb4b57d4"},"name":"FRANCISCAN PHYSICIANS HOSPITAL LLC","city":"MUNSTER","address":"701 SUPERIOR AVE","state":"IN","zip":46321,"location":{"coordinates":[-87.512019317,41.5377579280001],"type":"Point"}}
{"_id":{"$oid":"5c7ac5cc0b1675c9eb4b57d5"},"name":"FRANCISCAN ST ANTHONY HEALTH - CROWN POINT","city":"CROWN POINT","address":"1201 S MAIN ST","state":"IN","zip":46307,"location":{"coordinates":[-87.366975004,41.3956203400001],"type":"Point"}}
{"_id":{"$oid":"5c7ac5cc0b1675c9eb4b57d6"},"name":"FRANCISCAN ST ELIZABETH HEALTH - CRAWFORDSVILLE","city":"CRAWFORDSVILLE","address":"1710 LAFAYETTE RD","state":"IN","zip":47933,"location":{"coordinates":[-86.905571914,40.0664718570001],"type":"Point"}}
{"_id":{"$oid":"5c7ac5cc0b1675c9eb4b57d7"},"name":"FRANCISCAN ST MARGARET HEALTH - HAMMOND","city":"HAMMOND","address":"5454 HOHMAN AVE","state":"IN","zip":46320,"location":{"coordinates":[-87.5239895029999,41.61511211],"type":"Point"}}
{"_id":{"$oid":"5c7ac5cc0b1675c9eb4b57d8"},"name":"FRANCISCAN HEALTHCARE RENSSLAER","city":"RENSSELAER","address":"1104 E GRACE ST","state":"IN","zip":47978,"location":{"coordinates":[-87.1387792089999,40.934513124],"type":"Point"}}
{"_id":{"$oid":"5c7ac5cc0b1675c9eb4b57d9"},"name":"MONROE HOSPITAL","city":"BLOOMINGTON","address":"4011 S MONROE MEDICAL PARK BLVD","state":"IN","zip":47403,"location":{"coordinates":[-86.57195222,39.120608664],"type":"Point"}}
{"_id":{"$oid":"5c7ac5cc0b1675c9eb4b57da"},"name":"INDIANA UNIVERSITY HEALTH BLOOMINGTON HOSPITAL","city":"BLOOMINGTON","address":"601 W SECOND ST","state":"IN","zip":47403,"location":{"coordinates":[-86.539893595,39.15989295],"type":"Point"}}
{"_id":{"$oid":"5c7ac5cc0b1675c9eb4b57db"},"name":"FRANCISCAN ST MARGARET HEALTH - DYER","city":"DYER","address":"24 JOLIET ST","state":"IN","zip":46311,"location":{"coordinates":[-87.524717438,41.4923514610001],"type":"Point"}}
{"_id":{"$oid":"5c7ac5cc0b1675c9eb4b57dc"},"name":"KINDRED HOSPITAL NORTHWEST INDIANA","city":"HAMMOND","address":"5454 HOHMAN AVE,5TH FL","state":"IN","zip":46320,"location":{"coordinates":[-87.523073411,41.61515732],"type":"Point"}}
{"_id":{"$oid":"5c7ac5cc0b1675c9eb4b57dd"},"name":"METHODIST HOSPITALS INC","city":"GARY","address":"600 GRANT ST","state":"IN","zip":46402,"location":{"coordinates":[-87.357670334,41.599559432],"type":"Point"}}
{"_id":{"$oid":"5c7ac5cc0b1675c9eb4b57de"},"name":"PINNACLE HOSPITAL","city":"CROWN POINT","address":"9301 CONNECTICUT DR","state":"IN","zip":46307,"location":{"coordinates":[-87.3285665449999,41.4480816980001],"type":"Point"}}
{"_id":{"$oid":"5c7ac5cc0b1675c9eb4b57df"},"name":"FRANCISCAN ST ELIZABETH HEALTH - LAFAYETTE EAST","city":"LAFAYETTE","address":"1701 S CREASY LN","state":"IN","zip":47905,"location":{"coordinates":[-86.834549059,40.3940202320001],"type":"Point"}}
{"_id":{"$oid":"5c7ac5cc0b1675c9eb4b57e0"},"name":"INDIANA UNIVERSITY HEALTH PAOLI HOSPITAL","city":"PAOLI","address":"642 W HOSPITAL RD","state":"IN","zip":47454,"location":{"coordinates":[-86.475163718,38.5683614380001],"type":"Point"}}
{"_id":{"$oid":"5c7ac5cc0b1675c9eb4b57e1"},"name":"BHC VALLE VISTA HOSPITAL","city":"GREENWOOD","address":"898 E MAIN ST","state":"IN","zip":46143,"location":{"coordinates":[-86.086413638,39.615677874],"type":"Point"}}
{"_id":{"$oid":"5c7ac5cc0b1675c9eb4b57e2"},"name":"JOHNSON MEMORIAL HOSPITAL","city":"FRANKLIN","address":"1125 W JEFFERSON ST","state":"IN","zip":46131,"location":{"coordinates":[-86.077000603,39.4796677410001],"type":"Point"}}
{"_id":{"$oid":"5c7ac5cc0b1675c9eb4b57e3"},"name":"INDIANA UNIVERSITY HEALTH TIPTON HOSPITAL INC","city":"TIPTON","address":"1000 S MAIN ST","state":"IN","zip":46072,"location":{"coordinates":[-86.042162253,40.2719303540001],"type":"Point"}}
{"_id":{"$oid":"5c7ac5cc0b1675c9eb4b57e4"},"name":"CAMERON MEMORIAL COMMUNITY HOSPITAL INC","city":"ANGOLA","address":"416 E MAUMEE ST","state":"IN","zip":46703,"location":{"coordinates":[-84.994689108,41.634378767],"type":"Point"}}
{"_id":{"$oid":"5c7ac5cc0b1675c9eb4b57e5"},"name":"INDIANA UNIVERSITY HEALTH ARNETT HOSPITAL","city":"LAFAYETTE","address":"5165 MCCARTY LN","state":"IN","zip":47905,"location":{"coordinates":[-86.806373219,40.400530442],"type":"Point"}}
{"_id":{"$oid":"5c7ac5cc0b1675c9eb4b57e6"},"name":"FRANCISCAN ST ANTHONY HEALTH - MICHIGAN CITY","city":"MICHIGAN CITY","address":"301 W HOMER ST","state":"IN","zip":46360,"location":{"coordinates":[-86.900461091,41.7068411270001],"type":"Point"}}
{"_id":{"$oid":"5c7ac5cc0b1675c9eb4b57e7"},"name":"INDIANA UNIVERSITY HEALTH LA PORTE HOSPITAL","city":"LA PORTE","address":"1007 LINCOLNWAY","state":"IN","zip":46350,"location":{"coordinates":[-86.725290268,41.610652171],"type":"Point"}}
{"_id":{"$oid":"5c7ac5cc0b1675c9eb4b57e8"},"name":"INDIANA UNIVERSITY HEALTH BEDFORD HOSPITAL","city":"BEDFORD","address":"2900 W 16TH ST","state":"IN","zip":47421,"location":{"coordinates":[-86.513198317,38.859920877],"type":"Point"}}
{"_id":{"$oid":"5c7ac5cc0b1675c9eb4b57e9"},"name":"COMMUNITY HOSPITAL OF ANDERSON AND MADISON COUNTY","city":"ANDERSON","address":"1515 N MADISON AVE","state":"IN","zip":46011,"location":{"coordinates":[-85.693209184,40.1306455880001],"type":"Point"}}
{"_id":{"$oid":"5c7ac5cc0b1675c9eb4b57ea"},"name":"GOOD SAMARITAN HOSPITAL","city":"VINCENNES","address":"520 S 7TH ST","state":"IN","zip":47591,"location":{"coordinates":[-87.532093359,38.6733129290001],"type":"Point"}}
{"_id":{"$oid":"5c7ac5cc0b1675c9eb4b57eb"},"name":"HANCOCK REGIONAL HOSPITAL","city":"GREENFIELD","address":"801 N STATE ST","state":"IN","zip":46140,"location":{"coordinates":[-85.768081056,39.795493326],"type":"Point"}}
{"_id":{"$oid":"5c7ac5cc0b1675c9eb4b57ec"},"name":"GREENE COUNTY GENERAL HOSPITAL","city":"LINTON","address":"1185 N 1000 W","state":"IN","zip":47441,"location":{"coordinates":[-87.130309914,39.040742209],"type":"Point"}}
{"_id":{"$oid":"5c7ac5cc0b1675c9eb4b57ed"},"name":"INDIANA UNIVERSITY HEALTH NORTH HOSPITAL","city":"CARMEL","address":"11700 N MERIDIAN ST","state":"IN","zip":46032,"location":{"coordinates":[-86.159655667,39.959344478],"type":"Point"}}
{"_id":{"$oid":"5c7ac5cc0b1675c9eb4b57ee"},"name":"MEMORIAL HOSPITAL OF SOUTH BEND","city":"SOUTH BEND","address":"615 N MICHIGAN ST","state":"IN","zip":46601,"location":{"coordinates":[-86.25157885,41.684055286],"type":"Point"}}
{"_id":{"$oid":"5c7ac5cc0b1675c9eb4b57ef"},"name":"GIBSON GENERAL HOSPITAL","city":"PRINCETON","address":"1808 SHERMAN DR","state":"IN","zip":47670,"location":{"coordinates":[-87.589832206,38.360917273],"type":"Point"}}
{"_id":{"$oid":"5c7ac5cc0b1675c9eb4b57f0"},"name":"GRANT-BLACKFORD MENTAL HEALTH, INC","city":"MARION","address":"505 WABASH AVE","state":"IN","zip":46952,"location":{"coordinates":[-85.6662408,40.564232786],"type":"Point"}}
{"_id":{"$oid":"5c7ac5cc0b1675c9eb4b57f1"},"name":"A ROSIE PLACE","city":"SOUTH BEND","address":"53131 QUINCE RD","state":"IN","zip":46628,"location":{"coordinates":[-86.381464342,41.720046037],"type":"Point"}}
{"_id":{"$oid":"5c7ac5cc0b1675c9eb4b57f2"},"name":"INDIANA UNIVERSITY HEALTH STARKE HOSPITAL","city":"KNOX","address":"102 E CULVER RD","state":"IN","zip":46534,"location":{"coordinates":[-86.621997285,41.287568804],"type":"Point"}}
{"_id":{"$oid":"5c7ac5cc0b1675c9eb4b57f3"},"name":"MARION GENERAL HOSPITAL","city":"MARION","address":"441 N WABASH AVE","state":"IN","zip":46952,"location":{"coordinates":[-85.664163259,40.5636952030001],"type":"Point"}}
{"_id":{"$oid":"5c7ac5cc0b1675c9eb4b57f4"},"name":"COMMUNITY HOSPITAL OF BREMEN INC","city":"BREMEN","address":"1020 HIGH RD","state":"IN","zip":46506,"location":{"coordinates":[-86.1588497229999,41.456467767],"type":"Point"}}
{"_id":{"$oid":"5c7ac5cc0b1675c9eb4b57f5"},"name":"DOCTORS NEUROPSYCHIATRIC HOSPITAL","city":"BREMEN","address":"417 S WHITLOCK ST","state":"IN","zip":46506,"location":{"coordinates":[-86.150319348,41.443335034],"type":"Point"}}
{"_id":{"$oid":"5c7ac5cc0b1675c9eb4b57f6"},"name":"MICHIANA BEHAVIORAL HEALTH CENTER","city":"PLYMOUTH","address":"1800 N OAK RD","state":"IN","zip":46563,"location":{"coordinates":[-86.3275739169999,41.3569279210001],"type":"Point"}}
{"_id":{"$oid":"5c7ac5cc0b1675c9eb4b57f7"},"name":"PARKVIEW HUNTINGTON HOSPITAL","city":"HUNTINGTON","address":"2001 STULTS RD","state":"IN","zip":46750,"location":{"coordinates":[-85.4887469829999,40.9058777380001],"type":"Point"}}
{"_id":{"$oid":"5c7ac5cc0b1675c9eb4b57f8"},"name":"FAYETTE REGIONAL HEALTH SYSTEM","city":"CONNERSVILLE","address":"1941 VIRGINIA AVE","state":"IN","zip":47331,"location":{"coordinates":[-85.1326609979999,39.6562381750001],"type":"Point"}}
{"_id":{"$oid":"5c7ac5cc0b1675c9eb4b57f9"},"name":"PARKVIEW WHITLEY HOSPITAL","city":"COLUMBIA CITY","address":"1260 E SR 205","state":"IN","zip":46725,"location":{"coordinates":[-85.4649015909999,41.158646371],"type":"Point"}}
{"_id":{"$oid":"5c7ac5cc0b1675c9eb4b57fa"},"name":"INDIANA UNIVERSITY HEALTH WHITE MEMORIAL HOSPITAL","city":"MONTICELLO","address":"720 SOUTH SIXTH ST","state":"IN","zip":47960,"location":{"coordinates":[-86.777599605,40.733974689],"type":"Point"}}
{"_id":{"$oid":"5c7ac5cc0b1675c9eb4b57fb"},"name":"COMMUNITY HOSPITAL EAST","city":"INDIANAPOLIS","address":"1500 N RITTER AVE","state":"IN","zip":46219,"location":{"coordinates":[-86.075498184,39.7873137190001],"type":"Point"}}
{"_id":{"$oid":"5c7ac5cc0b1675c9eb4b57fc"},"name":"COMMUNITY HOSPITAL NORTH","city":"INDIANAPOLIS","address":"7150 CLEARVISTA DR","state":"IN","zip":46256,"location":{"coordinates":[-86.0421630929999,39.9011160920001],"type":"Point"}}
{"_id":{"$oid":"5c7ac5cc0b1675c9eb4b57fd"},"name":"COMMUNITY HOSPITAL SOUTH","city":"INDIANAPOLIS","address":"1402 E COUNTY LINE RD S","state":"IN","zip":46227,"location":{"coordinates":[-86.132651341,39.63680298],"type":"Point"}}
{"_id":{"$oid":"5c7ac5cc0b1675c9eb4b57fe"},"name":"FAIRBANKS","city":"INDIANAPOLIS","address":"8102 CLEARVISTA PARKWAY","state":"IN","zip":46256,"location":{"coordinates":[-86.040944477,39.902689271],"type":"Point"}}
{"_id":{"$oid":"5c7ac5cc0b1675c9eb4b57ff"},"name":"FRANCISCAN ST FRANCIS HEALTH - INDIANAPOLIS","city":"INDIANAPOLIS","address":"8111 S EMERSON AVE","state":"IN","zip":46237,"location":{"coordinates":[-86.079467628,39.6487177590001],"type":"Point"}}
{"_id":{"$oid":"5c7ac5cc0b1675c9eb4b5800"},"name":"KINDRED HOSPITAL INDIANAPOLIS","city":"INDIANAPOLIS","address":"1700 W 10TH ST","state":"IN","zip":46222,"location":{"coordinates":[-86.191449166,39.781501851],"type":"Point"}}
{"_id":{"$oid":"5c7ac5cc0b1675c9eb4b5801"},"name":"LARUE D CARTER MEMORIAL HOSPITAL","city":"INDIANAPOLIS","address":"2601 COLD SPRING RD","state":"IN","zip":46222,"location":{"coordinates":[-86.201292048,39.802493552],"type":"Point"}}
{"_id":{"$oid":"5c7ac5cc0b1675c9eb4b5802"},"name":"OPTIONS BEHAVIORAL HEALTH SYSTEM","city":"INDIANAPOLIS","address":"5602 CAITO DRIVE","state":"IN","zip":46226,"location":{"coordinates":[-86.04373859,39.855761569],"type":"Point"}}
{"_id":{"$oid":"5c7ac5cc0b1675c9eb4b5803"},"name":"MADISON STATE HOSPITAL","city":"MADISON","address":"711 GREEN RD","state":"IN","zip":47250,"location":{"coordinates":[-85.401992921,38.7460615140001],"type":"Point"}}
{"_id":{"$oid":"5c7ac5cc0b1675c9eb4b5804"},"name":"JAY COUNTY HOSPITAL","city":"PORTLAND","address":"500 W VOTAW ST","state":"IN","zip":47371,"location":{"coordinates":[-84.984920242,40.4412983650001],"type":"Point"}}
{"_id":{"$oid":"5c7ac5cc0b1675c9eb4b5805"},"name":"HENRY COUNTY MEMORIAL HOSPITAL","city":"NEW CASTLE","address":"1000 N 16TH ST","state":"IN","zip":47362,"location":{"coordinates":[-85.362963153,39.9433770090001],"type":"Point"}}
{"_id":{"$oid":"5c7ac5cc0b1675c9eb4b5806"},"name":"COMMUNITY HOWARD REGIONAL HEALTH INC","city":"KOKOMO","address":"3500 S LAFOUNTAIN ST","state":"IN","zip":46904,"location":{"coordinates":[-86.1246590109999,40.4472016930001],"type":"Point"}}
{"_id":{"$oid":"5c7ac5cc0b1675c9eb4b5807"},"name":"COMMUNITY HOWARD SPECIALTY HOSPITAL","city":"KOKOMO","address":"829 N DIXON RD","state":"IN","zip":46901,"location":{"coordinates":[-86.16580401,40.4972564220001],"type":"Point"}}
{"_id":{"$oid":"5c7ac5cc0b1675c9eb4b5808"},"name":"HARRISON COUNTY HOSPITAL","city":"CORYDON","address":"1141 HOSPITAL DR NW","state":"IN","zip":47112,"location":{"coordinates":[-86.147688988,38.237875285],"type":"Point"}}
{"_id":{"$oid":"5c7ac5cc0b1675c9eb4b5809"},"name":"HENDRICKS REGIONAL HEALTH","city":"DANVILLE","address":"1000 E MAIN ST","state":"IN","zip":46122,"location":{"coordinates":[-86.50188213,39.761912163],"type":"Point"}}
{"_id":{"$oid":"5c7ac5cc0b1675c9eb4b580a"},"name":"INDIANA UNIVERSITY HEALTH WEST HOSPITAL","city":"AVON","address":"1111 N RONALD REAGAN PKWY","state":"IN","zip":46123,"location":{"coordinates":[-86.340446634,39.7805043930001],"type":"Point"}}
{"_id":{"$oid":"5c7ac5cc0b1675c9eb4b580b"},"name":"FLOYD MEMORIAL HOSPITAL AND HEALTH SERVICES","city":"NEW ALBANY","address":"1850 STATE ST","state":"IN","zip":47150,"location":{"coordinates":[-85.834335192,38.301364386],"type":"Point"}}
{"_id":{"$oid":"5c7ac5cc0b1675c9eb4b580c"},"name":"PHYSICIANS' MEDICAL CENTER LLC","city":"NEW ALBANY","address":"4023 REAS LN","state":"IN","zip":47150,"location":{"coordinates":[-85.827989949,38.339954129],"type":"Point"}}
{"_id":{"$oid":"5c7ac5cc0b1675c9eb4b580d"},"name":"WITHAM HEALTH SERVICES","city":"LEBANON","address":"2605 N LEBANON ST","state":"IN","zip":46052,"location":{"coordinates":[-86.4729904019999,40.077473453],"type":"Point"}}
{"_id":{"$oid":"5c7ac5cc0b1675c9eb4b580e"},"name":"WELLSTONE REGIONAL HOSPITAL","city":"JEFFERSONVILLE","address":"2700 VISSING PARK RD","state":"IN","zip":47130,"location":{"coordinates":[-85.709325225,38.3269072940001],"type":"Point"}}
{"_id":{"$oid":"5c7ac5cc0b1675c9eb4b580f"},"name":"PORTER-STARKE SERVICES INC","city":"VALPARAISO","address":"701 WALL ST","state":"IN","zip":46383,"location":{"coordinates":[-87.052033108,41.489690368],"type":"Point"}}
{"_id":{"$oid":"5c7ac5cc0b1675c9eb4b5810"},"name":"REHABILITATION HOSPITAL OF FORT WAYNE GENERAL PAR","city":"FORT WAYNE","address":"7970 W JEFFERSON BLVD","state":"IN","zip":46804,"location":{"coordinates":[-85.248212189,41.042790267],"type":"Point"}}
{"_id":{"$oid":"5c7ac5cc0b1675c9eb4b5811"},"name":"ST JOSEPH HOSPITAL","city":"FORT WAYNE","address":"700 BROADWAY","state":"IN","zip":46802,"location":{"coordinates":[-85.149277199,41.0780007340001],"type":"Point"}}
{"_id":{"$oid":"5c7ac5cc0b1675c9eb4b5812"},"name":"RUSH MEMORIAL HOSPITAL","city":"RUSHVILLE","address":"1300 N MAIN ST","state":"IN","zip":46173,"location":{"coordinates":[-85.444036915,39.6217545870001],"type":"Point"}}
{"_id":{"$oid":"5c7ac5cc0b1675c9eb4b5813"},"name":"PULASKI MEMORIAL HOSPITAL","city":"WINAMAC","address":"616 E 13TH ST","state":"IN","zip":46996,"location":{"coordinates":[-86.5959984949999,41.0562675690001],"type":"Point"}}
{"_id":{"$oid":"5c7ac5cc0b1675c9eb4b5814"},"name":"ST VINCENT CLAY HOSPITAL INC","city":"BRAZIL","address":"1206 E NATIONAL AVE","state":"IN","zip":47834,"location":{"coordinates":[-87.111811211,39.529071161],"type":"Point"}}
{"_id":{"$oid":"5c7ac5cc0b1675c9eb4b5815"},"name":"ST VINCENT FRANKFORT HOSPITAL INC","city":"FRANKFORT","address":"1300 S JACKSON ST","state":"IN","zip":46041,"location":{"coordinates":[-86.5112807099999,40.269550646],"type":"Point"}}
{"_id":{"$oid":"5c7ac5cc0b1675c9eb4b5816"},"name":"ST MARY'S MEDICAL CENTER OF EVANSVILLE INC","city":"EVANSVILLE","address":"3700 WASHINGTON AVE","state":"IN","zip":47750,"location":{"coordinates":[-87.5029261509999,37.963344449],"type":"Point"}}
{"_id":{"$oid":"5c7ac5cc0b1675c9eb4b5817"},"name":"UNION HOSPITAL CLINTON","city":"CLINTON","address":"801 S MAIN ST","state":"IN","zip":47842,"location":{"coordinates":[-87.39918421,39.6529025080001],"type":"Point"}}
{"_id":{"$oid":"5c7ac5cc0b1675c9eb4b5818"},"name":"TERRE HAUTE REGIONAL HOSPITAL","city":"TERRE HAUTE","address":"3901 S SEVENTH ST","state":"IN","zip":47802,"location":{"coordinates":[-87.409046743,39.4193961560001],"type":"Point"}}
{"_id":{"$oid":"5c7ac5cc0b1675c9eb4b5819"},"name":"UNION HOSPITAL INC","city":"TERRE HAUTE","address":"1606 N SEVENTH ST","state":"IN","zip":47804,"location":{"coordinates":[-87.406975608,39.485864576],"type":"Point"}}
{"_id":{"$oid":"5c7ac5cc0b1675c9eb4b581a"},"name":"PARKVIEW WABASH HOSPITAL","city":"WABASH","address":"710 N EAST ST","state":"IN","zip":46992,"location":{"coordinates":[-85.815870036,40.806916615],"type":"Point"}}
{"_id":{"$oid":"5c7ac5cc0b1675c9eb4b581b"},"name":"ST MARY'S WARRICK HOSPITAL INC","city":"BOONVILLE","address":"1116 MILLIS AVE","state":"IN","zip":47601,"location":{"coordinates":[-87.2628111989999,38.0419286320001],"type":"Point"}}
{"_id":{"$oid":"5c7ac5cc0b1675c9eb4b581c"},"name":"THE HEART HOSPITAL AT DEACONESS GATEWAY LLC","city":"NEWBURGH","address":"4007 GATEWAY BLVD","state":"IN","zip":47630,"location":{"coordinates":[-87.445107776,37.9748831650001],"type":"Point"}}
{"_id":{"$oid":"5c7ac5cc0b1675c9eb4b581d"},"name":"WOMEN'S HOSPITAL THE","city":"NEWBURGH","address":"4199 GATEWAY BLVD","state":"IN","zip":47630,"location":{"coordinates":[-87.4473020629999,37.9737925270001],"type":"Point"}}
{"_id":{"$oid":"5c7ac5cc0b1675c9eb4b581e"},"name":"ST VINCENT WILLIAMSPORT HOSPITAL INC","city":"WILLIAMSPORT","address":"412 N MONROE ST","state":"IN","zip":47993,"location":{"coordinates":[-87.2967014669999,40.2904321140001],"type":"Point"}}
{"_id":{"$oid":"5c7ac5cc0b1675c9eb4b581f"},"name":"RICHMOND STATE HOSPITAL","city":"RICHMOND","address":"498 NW 18TH ST","state":"IN","zip":47374,"location":{"coordinates":[-84.9257137549999,39.838912646],"type":"Point"}}
{"_id":{"$oid":"5c7ac5cc0b1675c9eb4b5820"},"name":"ST VINCENT SALEM HOSPITAL INC","city":"SALEM","address":"911 N SHELBY ST","state":"IN","zip":47167,"location":{"coordinates":[-86.107079115,38.613268825],"type":"Point"}}
{"_id":{"$oid":"5c7ac5cc0b1675c9eb4b5821"},"name":"REGENCY HOSPITAL OF NORTHWEST INDIANA","city":"EAST CHICAGO","address":"4321 FIR ST,4TH FL","state":"IN","zip":46312,"location":{"coordinates":[-87.4478277059999,41.634446687],"type":"Point"}}
{"_id":{"$oid":"5c7ac5cc0b1675c9eb4b5822"},"name":"REGIONAL MENTAL HEALTH CENTER","city":"MERRILLVILLE","address":"8555 TAFT ST","state":"IN","zip":46410,"location":{"coordinates":[-87.363365226,41.4633470900001],"type":"Point"}}
{"_id":{"$oid":"5c7ac5cc0b1675c9eb4b5823"},"name":"ST CATHERINE HOSPITAL INC","city":"EAST CHICAGO","address":"4321 FIR ST","state":"IN","zip":46312,"location":{"coordinates":[-87.448822321,41.6347893290001],"type":"Point"}}
{"_id":{"$oid":"5c7ac5cc0b1675c9eb4b5824"},"name":"ST MARY MEDICAL CENTER INC","city":"HOBART","address":"1500 S LAKE PARK AVE","state":"IN","zip":46342,"location":{"coordinates":[-87.260791495,41.5127491490001],"type":"Point"}}
{"_id":{"$oid":"5c7ac5cc0b1675c9eb4b5825"},"name":"VIBRA HOSPITAL OF NORTHWESTERN INDIANA","city":"CROWN POINT","address":"9509 GEORGIA ST","state":"IN","zip":46307,"location":{"coordinates":[-87.3253993769999,41.4446198520001],"type":"Point"}}
{"_id":{"$oid":"5c7ac5cc0b1675c9eb4b5826"},"name":"SULLIVAN COUNTY COMMUNITY HOSPITAL","city":"SULLIVAN","address":"2200 N SECTION ST","state":"IN","zip":47882,"location":{"coordinates":[-87.412610069,39.1255702490001],"type":"Point"}}
{"_id":{"$oid":"5c7ac5cc0b1675c9eb4b5827"},"name":"RIVER BEND HOSPITAL","city":"WEST LAFAYETTE","address":"2900 N RIVER RD","state":"IN","zip":47906,"location":{"coordinates":[-86.89388199,40.459714696],"type":"Point"}}
{"_id":{"$oid":"5c7ac5cc0b1675c9eb4b5828"},"name":"SYCAMORE SPRINGS","city":"LAFAYETTE","address":"833 PARK EAST BLVD","state":"IN","zip":47905,"location":{"coordinates":[-86.827446464,40.4066718],"type":"Point"}}
{"_id":{"$oid":"5c7ac5cc0b1675c9eb4b5829"},"name":"ST VINCENT DUNN HOSPITAL INC","city":"BEDFORD","address":"1600 23RD ST","state":"IN","zip":47421,"location":{"coordinates":[-86.493958171,38.8528725800001],"type":"Point"}}
{"_id":{"$oid":"5c7ac5cc0b1675c9eb4b582a"},"name":"ST. VINCENT ANDERSON REGIONAL HOSPITAL","city":"ANDERSON","address":"2015 JACKSON ST","state":"IN","zip":46016,"location":{"coordinates":[-85.681305944,40.095484936],"type":"Point"}}
{"_id":{"$oid":"5c7ac5cc0b1675c9eb4b582b"},"name":"ST VINCENT MERCY HOSPITAL","city":"ELWOOD","address":"1331 S A ST","state":"IN","zip":46036,"location":{"coordinates":[-85.842215755,40.2763651290001],"type":"Point"}}
{"_id":{"$oid":"5c7ac5cc0b1675c9eb4b582c"},"name":"SCOTT COUNTY MEMORIAL HOSPITAL AKA SCOTT MEMORIAL","city":"SCOTTSBURG","address":"1451 N GARDNER ST","state":"IN","zip":47170,"location":{"coordinates":[-85.786184975,38.704989842],"type":"Point"}}
{"_id":{"$oid":"5c7ac5cc0b1675c9eb4b582d"},"name":"SAINT JOSEPH REGIONAL MEDICAL CENTER","city":"MISHAWAKA","address":"5215 HOLY CROSS PKWY","state":"IN","zip":46545,"location":{"coordinates":[-86.174469581,41.7071773810001],"type":"Point"}}
{"_id":{"$oid":"5c7ac5cc0b1675c9eb4b582e"},"name":"UNITY MEDICAL AND SURGICAL HOSPITAL","city":"MISHAWAKA","address":"4455 EDISON LAKES PKWY","state":"IN","zip":46545,"location":{"coordinates":[-86.178003809,41.7012324340001],"type":"Point"}}
{"_id":{"$oid":"5c7ac5cc0b1675c9eb4b582f"},"name":"WOODLAWN HOSPITAL","city":"ROCHESTER","address":"1400 E 9TH ST","state":"IN","zip":46975,"location":{"coordinates":[-86.195692053,41.0639643420001],"type":"Point"}}
{"_id":{"$oid":"5c7ac5cc0b1675c9eb4b5830"},"name":"RIVERVIEW HOSPITAL","city":"NOBLESVILLE","address":"395 WESTFIELD RD","state":"IN","zip":46060,"location":{"coordinates":[-86.023521853,40.04581762],"type":"Point"}}
{"_id":{"$oid":"5c7ac5cc0b1675c9eb4b5831"},"name":"ST VINCENT CARMEL HOSPITAL INC","city":"CARMEL","address":"13500 N MERIDIAN ST","state":"IN","zip":46032,"location":{"coordinates":[-86.144020037,39.982446345],"type":"Point"}}
{"_id":{"$oid":"5c7ac5cc0b1675c9eb4b5832"},"name":"ST VINCENT HEART CENTER OF INDIANA LLC","city":"INDIANAPOLIS","address":"10580 N MERIDIAN ST","state":"IN","zip":46290,"location":{"coordinates":[-86.159170257,39.939347373],"type":"Point"}}
{"_id":{"$oid":"5c7ac5cc0b1675c9eb4b5833"},"name":"SAINT JOSEPH'S REGIONAL MEDICAL CENTER - PLYMOUTH","city":"PLYMOUTH","address":"1915 LAKE AVE","state":"IN","zip":46563,"location":{"coordinates":[-86.3318612899999,41.33350568],"type":"Point"}}
{"_id":{"$oid":"5c7ac5cc0b1675c9eb4b5834"},"name":"ST VINCENT SETON SPECIALTY HOSPITAL, INDIANAPOLIS","city":"INDIANAPOLIS","address":"8050 TOWNSHIP LINE RD","state":"IN","zip":46260,"location":{"coordinates":[-86.204365544,39.9018124570001],"type":"Point"}}
{"_id":{"$oid":"5c7ac5cc0b1675c9eb4b5835"},"name":"SCHNECK MEDICAL CENTER","city":"SEYMOUR","address":"411 W TIPTON ST","state":"IN","zip":47274,"location":{"coordinates":[-85.891833925,38.955740442],"type":"Point"}}
{"_id":{"$oid":"5c7ac5cc0b1675c9eb4b5836"},"name":"SOUTHERN INDIANA REHABILITATION HOSPITAL","city":"NEW ALBANY","address":"3104 BLACKISTON BLVD","state":"IN","zip":47150,"location":{"coordinates":[-85.794721707,38.336701324],"type":"Point"}}
{"_id":{"$oid":"5c7ac5cc0b1675c9eb4b5837"},"name":"SAINT ALPHONSUS REGIONAL MEDICAL CENTER","city":"BOISE","address":"1055 NORTH CURTIS ROAD","state":"ID","zip":83706,"location":{"coordinates":[-116.255808098,43.6134327950001],"type":"Point"}}
{"_id":{"$oid":"5c7ac5cc0b1675c9eb4b5838"},"name":"MINIDOKA MEMORIAL HOSPITAL","city":"RUPERT","address":"1224 8TH STREET","state":"ID","zip":83350,"location":{"coordinates":[-113.686096682,42.6203972860001],"type":"Point"}}
{"_id":{"$oid":"5c7ac5cc0b1675c9eb4b5839"},"name":"SAINT ALPHONSUS MEDICAL CENTER - NAMPA","city":"NAMPA","address":"1512 12TH AVENUE ROAD","state":"ID","zip":83686,"location":{"coordinates":[-116.571452205,43.5518466190001],"type":"Point"}}
{"_id":{"$oid":"5c7ac5cc0b1675c9eb4b583a"},"name":"WEST VALLEY MEDICAL CENTER","city":"CALDWELL","address":"1717 ARLINGTON AVENUE","state":"ID","zip":83605,"location":{"coordinates":[-116.694275928,43.654327933],"type":"Point"}}
{"_id":{"$oid":"5c7ac5cc0b1675c9eb4b583b"},"name":"KOOTENAI MEDICAL CENTER","city":"COEUR D'ALENE","address":"2003 KOOTENAI HEALTH WAY","state":"ID","zip":83814,"location":{"coordinates":[-116.793702672,47.695503316],"type":"Point"}}
{"_id":{"$oid":"5c7ac5cc0b1675c9eb4b583c"},"name":"NORTH CANYON MEDICAL CENTER","city":"GOODING","address":"267 NORTH CANYON DRIVE","state":"ID","zip":83330,"location":{"coordinates":[-114.709657455,42.920995449],"type":"Point"}}
{"_id":{"$oid":"5c7ac5cc0b1675c9eb4b583d"},"name":"ASSURANCE PSYCHIATRIC HOSPITAL","city":"INDIANAPOLIS","address":"900 NORTH HIGH SCHOOL ROAD","state":"IN","zip":46214,"location":{"coordinates":[-86.273313,39.7775280000001],"type":"Point"}}
{"_id":{"$oid":"5c7ac5cc0b1675c9eb4b583e"},"name":"INTERMOUNTAIN HOSPITAL","city":"BOISE","address":"303 NORTH ALLUMBAUGH STREET","state":"ID","zip":83704,"location":{"coordinates":[-116.266917252,43.6070727430001],"type":"Point"}}
{"_id":{"$oid":"5c7ac5cc0b1675c9eb4b583f"},"name":"ST. JOSEPH REGIONAL MEDICAL CENTER","city":"LEWISTON","address":"415 SIXTH STREET","state":"ID","zip":83501,"location":{"coordinates":[-117.024366109,46.416439735],"type":"Point"}}
{"_id":{"$oid":"5c7ac5cc0b1675c9eb4b5840"},"name":"FRANKLIN COUNTY MEDICAL CENTER","city":"PRESTON","address":"44 NORTH FIRST EAST STREET","state":"ID","zip":83263,"location":{"coordinates":[-111.872976753,42.0976506260001],"type":"Point"}}
{"_id":{"$oid":"5c7ac5cc0b1675c9eb4b5841"},"name":"LOST RIVERS MEDICAL CENTER","city":"ARCO","address":"551 HIGHLAND DRIVE","state":"ID","zip":83213,"location":{"coordinates":[-113.295232872,43.639574812],"type":"Point"}}
{"_id":{"$oid":"5c7ac5cc0b1675c9eb4b5842"},"name":"SYRINGA HOSPITAL \u0026 CLINICS","city":"GRANGEVILLE","address":"607 WEST MAIN","state":"ID","zip":83530,"location":{"coordinates":[-116.127216591,45.927068358],"type":"Point"}}
{"_id":{"$oid":"5c7ac5cc0b1675c9eb4b5843"},"name":"WEISER MEMORIAL HOSPITAL","city":"WEISER","address":"645 EAST 5TH STREET","state":"ID","zip":83672,"location":{"coordinates":[-116.962441257,44.24872401],"type":"Point"}}
{"_id":{"$oid":"5c7ac5cc0b1675c9eb4b5844"},"name":"IDAHO STATE HOSPITAL SOUTH","city":"BLACKFOOT","address":"700 EAST ALICE STREET","state":"ID","zip":83221,"location":{"coordinates":[-112.334714425,43.187430229],"type":"Point"}}
{"_id":{"$oid":"5c7ac5cc0b1675c9eb4b5845"},"name":"PORTNEUF MEDICAL CENTER","city":"POCATELLO","address":"777 HOSPITAL WAY","state":"ID","zip":83201,"location":{"coordinates":[-112.420762032,42.8738530050001],"type":"Point"}}
{"_id":{"$oid":"5c7ac5cc0b1675c9eb4b5846"},"name":"GREAT FALLS CLINIC MEDICAL CENTER","city":"GREAT FALLS","address":"1411 9TH ST SOUTH","state":"MT","zip":59405,"location":{"coordinates":[-111.291352607,47.489354518],"type":"Point"}}
{"_id":{"$oid":"5c7ac5cc0b1675c9eb4b5847"},"name":"HEALTH CENTER NORTHWEST","city":"KALISPELL","address":"320 SUNNYVIEW LN","state":"MT","zip":59901,"location":{"coordinates":[-114.323273279,48.2151668340001],"type":"Point"}}
{"_id":{"$oid":"5c7ac5cc0b1675c9eb4b5848"},"name":"MONTANA STATE HOSPITAL","city":"WARM SPRINGS","address":"WARM SPRINGS CAMPUS","state":"MT","zip":59756,"location":{"coordinates":[-112.790867293,46.1808180290001],"type":"Point"}}
{"_id":{"$oid":"5c7ac5cc0b1675c9eb4b5849"},"name":"ACADIA MONTANA","city":"BUTTE","address":"55 BASIN CREEK ROAD","state":"MT","zip":59701,"location":{"coordinates":[-112.510929,45.9332820000001],"type":"Point"}}
{"_id":{"$oid":"5c7ac5cc0b1675c9eb4b584a"},"name":"LAKEVIEW CENTER - PSYCHIATRIC HOSPITAL","city":"PENSACOLA","address":"1201 W HERNANDEZ ST","state":"FL","zip":32501,"location":{"coordinates":[-87.233155885,30.4323569000001],"type":"Point"}}
{"_id":{"$oid":"5c7ac5cc0b1675c9eb4b584b"},"name":"HIGH POINT TREATMENT CENTER","city":"COOPER CITY","address":"5960 SW 106TH AVE","state":"FL","zip":33328,"location":{"coordinates":[-80.287216956,26.046132431],"type":"Point"}}
{"_id":{"$oid":"5c7ac5cc0b1675c9eb4b584c"},"name":"NEMOURS CHILDREN'S HOSPITAL","city":"ORLANDO","address":"13535 NEMOURS PKWY","state":"FL","zip":32827,"location":{"coordinates":[-81.273638956,28.3767995850001],"type":"Point"}}
{"_id":{"$oid":"5c7ac5cc0b1675c9eb4b584d"},"name":"HEALTHSOUTH REHABILITATION HOSPITAL OF ALTAMONTE SPRINGS","city":"ALTAMONTE SPRINGS","address":"831 S STATE RD 434","state":"FL","zip":32714,"location":{"coordinates":[-81.413059077,28.646330559],"type":"Point"}}
{"_id":{"$oid":"5c7ac5cc0b1675c9eb4b584e"},"name":"BETHESDA HOSPITAL WEST","city":"BOYNTON BEACH","address":"9655 W BOYNTON BEACH BLVD","state":"FL","zip":33472,"location":{"coordinates":[-80.199767724,26.5297280450001],"type":"Point"}}
{"_id":{"$oid":"5c7ac5cc0b1675c9eb4b584f"},"name":"BRANDON REGIONAL HOSPITAL","city":"BRANDON","address":"119 OAKFIELD DR","state":"FL","zip":33511,"location":{"coordinates":[-82.287810196,27.932998883],"type":"Point"}}
{"_id":{"$oid":"5c7ac5cc0b1675c9eb4b5850"},"name":"BAYFRONT HEALTH BROOKSVILLE","city":"BROOKSVILLE","address":"17240 CORTEZ BLVD","state":"FL","zip":34601,"location":{"coordinates":[-82.443491598,28.5388338240001],"type":"Point"}}
{"_id":{"$oid":"5c7ac5cc0b1675c9eb4b5851"},"name":"BAYFRONT HEALTH DADE CITY","city":"DADE CITY","address":"13100 FORT KING RD","state":"FL","zip":33525,"location":{"coordinates":[-82.2007200799999,28.3479628600001],"type":"Point"}}
{"_id":{"$oid":"5c7ac5cc0b1675c9eb4b5852"},"name":"SELECT SPECIALTY HOSPITAL - DAYTONA BEACH","city":"DAYTONA BEACH","address":"301 MEMORIAL MEDICAL PARKWAY,11TH FLOOR","state":"FL","zip":32117,"location":{"coordinates":[-81.107418835,29.2425623280001],"type":"Point"}}
{"_id":{"$oid":"5c7ac5cc0b1675c9eb4b5853"},"name":"DELRAY MEDICAL CENTER","city":"DELRAY BEACH","address":"5352 LINTON BLVD","state":"FL","zip":33484,"location":{"coordinates":[-80.127787747,26.4371928410001],"type":"Point"}}
{"_id":{"$oid":"5c7ac5cc0b1675c9eb4b5854"},"name":"PARK ROYAL HOSPITAL","city":"FORT MYERS","address":"9241 PARK ROYAL DR","state":"FL","zip":33908,"location":{"coordinates":[-81.9095689819999,26.5104316580001],"type":"Point"}}
{"_id":{"$oid":"5c7ac5cc0b1675c9eb4b5855"},"name":"PROMISE HOSPITAL OF FORT MYERS","city":"FORT MYERS","address":"3050 CHAMPION RING RD","state":"FL","zip":33905,"location":{"coordinates":[-81.802950584,26.6304104970001],"type":"Point"}}
{"_id":{"$oid":"5c7ac5cc0b1675c9eb4b5856"},"name":"LARKIN COMMUNITY HOSPITAL PALM SPRINGS CAMPUS","city":"HIALEAH","address":"1475 W 49TH ST","state":"FL","zip":33012,"location":{"coordinates":[-80.312269678,25.868542426],"type":"Point"}}
{"_id":{"$oid":"5c7ac5cc0b1675c9eb4b5857"},"name":"LARKIN COMMUNITY HOSPITAL BEHAVIORAL HEALTH SERVICES","city":"HOLLYWOOD","address":"1201 N 37TH AVE","state":"FL","zip":33021,"location":{"coordinates":[-80.180225134,26.0205514130001],"type":"Point"}}
{"_id":{"$oid":"5c7ac5cc0b1675c9eb4b5858"},"name":"UF HEALTH JACKSONVILLE","city":"JACKSONVILLE","address":"655 W 8TH ST","state":"FL","zip":32209,"location":{"coordinates":[-81.664274824,30.3485052390001],"type":"Point"}}
{"_id":{"$oid":"5c7ac5cc0b1675c9eb4b5859"},"name":"POINCIANA MEDICAL CENTER","city":"KISSIMMEE","address":"325 CYPRESS PKWY","state":"FL","zip":34758,"location":{"coordinates":[-81.476687855,28.144780763],"type":"Point"}}
{"_id":{"$oid":"5c7ac5cc0b1675c9eb4b585a"},"name":"LIFESTREAM BEHAVIORAL CENTER","city":"LEESBURG","address":"2020 TALLY RD","state":"FL","zip":34748,"location":{"coordinates":[-81.895483036,28.8369040920001],"type":"Point"}}
{"_id":{"$oid":"5c7ac5cc0b1675c9eb4b585b"},"name":"UNIVERSITY OF MIAMI HOSPITAL AND CLINICS","city":"MIAMI","address":"1475 NW 12TH AVE","state":"FL","zip":33136,"location":{"coordinates":[-80.214560032,25.7887970560001],"type":"Point"}}
{"_id":{"$oid":"5c7ac5cc0b1675c9eb4b585c"},"name":"MERCY HOSPITAL","city":"MIAMI","address":"3663 S MIAMI AVE","state":"FL","zip":33133,"location":{"coordinates":[-80.21435329,25.7401586230001],"type":"Point"}}
{"_id":{"$oid":"5c7ac5cc0b1675c9eb4b585d"},"name":"ST. VINCENT'S MEDICAL CENTER CLAY COUNTY","city":"MIDDLEBURG","address":"1670 ST. VINCENT'S WAY","state":"FL","zip":32068,"location":{"coordinates":[-81.832688692,30.108762428],"type":"Point"}}
{"_id":{"$oid":"5c7ac5cc0b1675c9eb4b585e"},"name":"NCH HEALTHCARE SYSTEM NORTH NAPLES HOSPITAL CAMPUS","city":"NAPLES","address":"11190 HEALTHPARK BLVD","state":"FL","zip":34110,"location":{"coordinates":[-81.7887450119999,26.274308897],"type":"Point"}}
{"_id":{"$oid":"5c7ac5cc0b1675c9eb4b585f"},"name":"PHYSICIANS REGIONAL - COLLIER BOULEVARD","city":"NAPLES","address":"8300 COLLIER BLVD","state":"FL","zip":34114,"location":{"coordinates":[-81.684884772,26.1055354210001],"type":"Point"}}
{"_id":{"$oid":"5c7ac5cc0b1675c9eb4b5860"},"name":"PHYSICIANS REGIONAL - PINE RIDGE","city":"NAPLES","address":"6101 PINE RIDGE RD","state":"FL","zip":34119,"location":{"coordinates":[-81.732683792,26.213952868],"type":"Point"}}
{"_id":{"$oid":"5c7ac5cc0b1675c9eb4b5861"},"name":"HEALTHSOUTH REHABILITATION HOSPITAL OF OCALA","city":"OCALA","address":"2275 SW 22ND LANE","state":"FL","zip":34471,"location":{"coordinates":[-82.1623349449999,29.165875541],"type":"Point"}}
{"_id":{"$oid":"5c7ac5cc0b1675c9eb4b5862"},"name":"ASPIRE HEALTH PARTNERS INC","city":"ORLANDO","address":"1800 MERCY DR","state":"FL","zip":32808,"location":{"coordinates":[-81.434244883,28.5676328920001],"type":"Point"}}
{"_id":{"$oid":"5c7ac5cc0b1675c9eb4b5863"},"name":"BAYFRONT HEALTH PORT CHARLOTTE","city":"PORT CHARLOTTE","address":"2500 HARBOR BLVD","state":"FL","zip":33952,"location":{"coordinates":[-82.0956902579999,26.988925185],"type":"Point"}}
{"_id":{"$oid":"5c7ac5cc0b1675c9eb4b5864"},"name":"TRADITION MEDICAL CENTER","city":"PORT SAINT LUCIE","address":"10000 SW INNOVATION WAY","state":"FL","zip":34987,"location":{"coordinates":[-80.426069532,27.2612467710001],"type":"Point"}}
{"_id":{"$oid":"5c7ac5cc0b1675c9eb4b5865"},"name":"ST. JOSEPH'S HOSPITAL SOUTH","city":"RIVERVIEW","address":"6901 SIMMONS LOOP","state":"FL","zip":33578,"location":{"coordinates":[-82.34510464,27.787781212],"type":"Point"}}
{"_id":{"$oid":"5c7ac5cc0b1675c9eb4b5866"},"name":"HEALTHSOUTH REHABILITATION HOSPITAL AT MARTIN HEALTH","city":"STUART","address":"5850 SE COMMUNITY DR","state":"FL","zip":34997,"location":{"coordinates":[-80.222455815,27.133437293],"type":"Point"}}
{"_id":{"$oid":"5c7ac5cc0b1675c9eb4b5867"},"name":"ST JOSEPH'S HOSPITAL","city":"TAMPA","address":"3001 W DR. MARTIN LUTHER KING JR BLVD","state":"FL","zip":33607,"location":{"coordinates":[-82.491851476,27.98214009],"type":"Point"}}
{"_id":{"$oid":"5c7ac5cc0b1675c9eb4b5868"},"name":"FLORIDA HOSPITAL WESLEY CHAPEL","city":"WESLEY CHAPEL","address":"2600 BRUCE B DOWNS BLVD","state":"FL","zip":33544,"location":{"coordinates":[-82.351142607,28.195624133],"type":"Point"}}
{"_id":{"$oid":"5c7ac5cc0b1675c9eb4b5869"},"name":"NORTH TAMPA BEHAVIORAL HEALTH","city":"WESLEY CHAPEL","address":"29910 SR 56","state":"FL","zip":33543,"location":{"coordinates":[-82.3238114179999,28.2003665390001],"type":"Point"}}
{"_id":{"$oid":"5c7ac5cc0b1675c9eb4b586a"},"name":"WINTER HAVEN WOMEN'S HOSPITAL","city":"WINTER HAVEN","address":"101 AVE O SE","state":"FL","zip":33880,"location":{"coordinates":[-81.7261778559999,28.0089756850001],"type":"Point"}}
{"_id":{"$oid":"5c7ac5cc0b1675c9eb4b586b"},"name":"ARNOLD PALMER HOSPITAL FOR CHILDREN","city":"ORLANDO","address":"92 W MILLER ST","state":"FL","zip":32806,"location":{"coordinates":[-81.37927042,28.5236186430001],"type":"Point"}}
{"_id":{"$oid":"5c7ac5cc0b1675c9eb4b586c"},"name":"CENTRAL FLORIDA BEHAVIORAL HOSPITAL","city":"ORLANDO","address":"6601 CENTRAL FLORIDA PKWY","state":"FL","zip":32821,"location":{"coordinates":[-81.469593393,28.409114054],"type":"Point"}}
{"_id":{"$oid":"5c7ac5cc0b1675c9eb4b586d"},"name":"DR P PHILLIPS HOSPITAL","city":"ORLANDO","address":"9400 TURKEY LAKE RD","state":"FL","zip":32819,"location":{"coordinates":[-81.4794221289999,28.429061549],"type":"Point"}}
{"_id":{"$oid":"5c7ac5cc0b1675c9eb4b586e"},"name":"FLORIDA HOSPITAL ORLANDO","city":"ORLANDO","address":"601 E ROLLINS ST","state":"FL","zip":32803,"location":{"coordinates":[-81.369996427,28.574414351],"type":"Point"}}
{"_id":{"$oid":"5c7ac5cc0b1675c9eb4b586f"},"name":"FLORIDA HOSPITAL APOPKA","city":"APOPKA","address":"201 N PARK AVE","state":"FL","zip":32703,"location":{"coordinates":[-81.508075864,28.680891758],"type":"Point"}}
{"_id":{"$oid":"5c7ac5cc0b1675c9eb4b5870"},"name":"FLORIDA HOSPITAL EAST ORLANDO","city":"ORLANDO","address":"7727 LAKE UNDERHILL RD","state":"FL","zip":32822,"location":{"coordinates":[-81.281540116,28.5399802540001],"type":"Point"}}
{"_id":{"$oid":"5c7ac5cc0b1675c9eb4b5871"},"name":"HEALTH CENTRAL","city":"OCOEE","address":"10000 W COLONIAL DR","state":"FL","zip":34761,"location":{"coordinates":[-81.5276599279999,28.549662416],"type":"Point"}}
{"_id":{"$oid":"5c7ac5cc0b1675c9eb4b5872"},"name":"LA AMISTAD RESIDENTIAL TREATMENT CENTER","city":"MAITLAND","address":"1650 PARK AVE N","state":"FL","zip":32751,"location":{"coordinates":[-81.364760761,28.613336045],"type":"Point"}}
{"_id":{"$oid":"5c7ac5cc0b1675c9eb4b5873"},"name":"SELECT SPECIALTY HOSPITAL - ORLANDO NORTH","city":"ORLANDO","address":"2250 BEDFORD RD","state":"FL","zip":32803,"location":{"coordinates":[-81.370441796,28.5722967250001],"type":"Point"}}
{"_id":{"$oid":"5c7ac5cc0b1675c9eb4b5874"},"name":"SELECT SPECIALTY HOSPITAL - ORLANDO SOUTH","city":"ORLANDO","address":"5579 S ORANGE AVE","state":"FL","zip":32809,"location":{"coordinates":[-81.3701752269999,28.4773875010001],"type":"Point"}}
{"_id":{"$oid":"5c7ac5cc0b1675c9eb4b5875"},"name":"UNIVERSITY BEHAVIORAL CENTER","city":"ORLANDO","address":"2500 DISCOVERY DR","state":"FL","zip":32826,"location":{"coordinates":[-81.1923045619999,28.581805489],"type":"Point"}}
{"_id":{"$oid":"5c7ac5cc0b1675c9eb4b5876"},"name":"WINTER PARK MEMORIAL HOSPITAL","city":"WINTER PARK","address":"200 N LAKEMONT AVE","state":"FL","zip":32792,"location":{"coordinates":[-81.326911138,28.5986447920001],"type":"Point"}}
{"_id":{"$oid":"5c7ac5cc0b1675c9eb4b5877"},"name":"FLORIDA HOSPITAL CELEBRATION HEALTH","city":"CELEBRATION","address":"400 CELEBRATION PLACE","state":"FL","zip":34747,"location":{"coordinates":[-81.5408529329999,28.3281284820001],"type":"Point"}}
{"_id":{"$oid":"5c7ac5cc0b1675c9eb4b5878"},"name":"FLORIDA HOSPITAL KISSIMMEE","city":"KISSIMMEE","address":"2450 N ORANGE BLOSSOM TRL","state":"FL","zip":34744,"location":{"coordinates":[-81.405970704,28.316135042],"type":"Point"}}
{"_id":{"$oid":"5c7ac5cc0b1675c9eb4b5879"},"name":"OSCEOLA REGIONAL MEDICAL CENTER","city":"KISSIMMEE","address":"700 W OAK ST","state":"FL","zip":34741,"location":{"coordinates":[-81.40919031,28.29968039],"type":"Point"}}
{"_id":{"$oid":"5c7ac5cc0b1675c9eb4b587a"},"name":"ST CLOUD REGIONAL MEDICAL CENTER","city":"SAINT CLOUD","address":"2906 17TH ST","state":"FL","zip":34769,"location":{"coordinates":[-81.3028067239999,28.24362232],"type":"Point"}}
{"_id":{"$oid":"5c7ac5cc0b1675c9eb4b587b"},"name":"BETHESDA MEMORIAL HOSPITAL","city":"BOYNTON BEACH","address":"2815 S SEACREST BLVD","state":"FL","zip":33435,"location":{"coordinates":[-80.070563971,26.5050572330001],"type":"Point"}}
{"_id":{"$oid":"5c7ac5cc0b1675c9eb4b587c"},"name":"GOOD SAMARITAN MEDICAL CENTER","city":"WEST PALM BEACH","address":"1309 N FLAGLER DR","state":"FL","zip":33401,"location":{"coordinates":[-80.0518812669999,26.7254617310001],"type":"Point"}}
{"_id":{"$oid":"5c7ac5cc0b1675c9eb4b587d"},"name":"JFK MEDICAL CENTER","city":"ATLANTIS","address":"5301 S CONGRESS AVE","state":"FL","zip":33462,"location":{"coordinates":[-80.091168304,26.5985861500001],"type":"Point"}}
{"_id":{"$oid":"5c7ac5cc0b1675c9eb4b587e"},"name":"WEST PALM HOSPITAL","city":"WEST PALM BEACH","address":"2201 45TH ST","state":"FL","zip":33407,"location":{"coordinates":[-80.087872693,26.761323589],"type":"Point"}}
{"_id":{"$oid":"5c7ac5cc0b1675c9eb4b587f"},"name":"KINDRED HOSPITAL PALM BEACHES","city":"RIVIERA BEACH","address":"5555 W BLUE HERON BLVD","state":"FL","zip":33418,"location":{"coordinates":[-80.1104593429999,26.7829789510001],"type":"Point"}}
{"_id":{"$oid":"5c7ac5cc0b1675c9eb4b5880"},"name":"LAKESIDE MEDICAL CENTER","city":"BELLE GLADE","address":"39200 HOOKER HWY","state":"FL","zip":33430,"location":{"coordinates":[-80.67111188,26.7242715530001],"type":"Point"}}
{"_id":{"$oid":"5c7ac5cc0b1675c9eb4b5881"},"name":"PALM BEACH GARDENS MEDICAL CENTER","city":"PALM BEACH GARDENS","address":"3360 BURNS RD","state":"FL","zip":33410,"location":{"coordinates":[-80.086569916,26.8296139],"type":"Point"}}
{"_id":{"$oid":"5c7ac5cc0b1675c9eb4b5882"},"name":"PALMS WEST HOSPITAL","city":"LOXAHATCHEE","address":"13001 SOUTHERN BLVD","state":"FL","zip":33470,"location":{"coordinates":[-80.252905311,26.68356565],"type":"Point"}}
{"_id":{"$oid":"5c7ac5cc0b1675c9eb4b5883"},"name":"SELECT SPECIALTY HOSPITAL - PALM BEACH","city":"LAKE WORTH","address":"3060 MELALEUCA LANE","state":"FL","zip":33461,"location":{"coordinates":[-80.091450027,26.609044082],"type":"Point"}}
{"_id":{"$oid":"5c7ac5cc0b1675c9eb4b5884"},"name":"ST MARY'S MEDICAL CENTER","city":"WEST PALM BEACH","address":"901 45TH ST","state":"FL","zip":33407,"location":{"coordinates":[-80.0624620309999,26.755871143],"type":"Point"}}
{"_id":{"$oid":"5c7ac5cc0b1675c9eb4b5885"},"name":"WELLINGTON REGIONAL MEDICAL CENTER","city":"WELLINGTON","address":"10101 FOREST HILL BLVD","state":"FL","zip":33414,"location":{"coordinates":[-80.205063632,26.6516621760001],"type":"Point"}}
{"_id":{"$oid":"5c7ac5cc0b1675c9eb4b5886"},"name":"PUTNAM COMMUNITY MEDICAL CENTER","city":"PALATKA","address":"611 ZEAGLER DR","state":"FL","zip":32177,"location":{"coordinates":[-81.69241585,29.6423617140001],"type":"Point"}}
{"_id":{"$oid":"5c7ac5cc0b1675c9eb4b5887"},"name":"FLORIDA HOSPITAL WATERMAN","city":"TAVARES","address":"1000 WATERMAN WAY","state":"FL","zip":32778,"location":{"coordinates":[-81.711793714,28.823672641],"type":"Point"}}
{"_id":{"$oid":"5c7ac5cc0b1675c9eb4b5888"},"name":"SOUTH LAKE HOSPITAL","city":"CLERMONT","address":"1900 DON WICKHAM DR","state":"FL","zip":34711,"location":{"coordinates":[-81.721776592,28.5523736590001],"type":"Point"}}
{"_id":{"$oid":"5c7ac5cc0b1675c9eb4b5889"},"name":"HEALTHSOUTH TREASURE COAST REHABILITATION","city":"VERO BEACH","address":"1600 37TH ST","state":"FL","zip":32960,"location":{"coordinates":[-80.40030947,27.661373461],"type":"Point"}}
{"_id":{"$oid":"5c7ac5cc0b1675c9eb4b588a"},"name":"INDIAN RIVER MEDICAL CENTER","city":"VERO BEACH","address":"1000 36TH ST","state":"FL","zip":32960,"location":{"coordinates":[-80.3951633139999,27.6584231050001],"type":"Point"}}
{"_id":{"$oid":"5c7ac5cc0b1675c9eb4b588b"},"name":"SEBASTIAN RIVER MEDICAL CENTER","city":"SEBASTIAN","address":"13695 US HWY 1","state":"FL","zip":32958,"location":{"coordinates":[-80.488786809,27.8436910400001],"type":"Point"}}
{"_id":{"$oid":"5c7ac5cc0b1675c9eb4b588c"},"name":"SACRED HEART HOSPITAL ON THE GULF","city":"PORT SAINT JOE","address":"3801 E HWY 98","state":"FL","zip":32456,"location":{"coordinates":[-85.2878970199999,29.7790236660001],"type":"Point"}}
{"_id":{"$oid":"5c7ac5cc0b1675c9eb4b588d"},"name":"ALL CHILDREN'S HOSPITAL","city":"SAINT PETERSBURG","address":"501 6TH AVE S","state":"FL","zip":33701,"location":{"coordinates":[-82.640753708,27.7646375240001],"type":"Point"}}
{"_id":{"$oid":"5c7ac5cc0b1675c9eb4b588e"},"name":"FLORIDA HOSPITAL NORTH PINELLAS","city":"TARPON SPRINGS","address":"1395 S PINELLAS AVE","state":"FL","zip":34689,"location":{"coordinates":[-82.75778618,28.132933816],"type":"Point"}}
{"_id":{"$oid":"5c7ac5cc0b1675c9eb4b588f"},"name":"HEALTHSOUTH REHABILITATION HOSPITAL","city":"LARGO","address":"901 N CLEARWATER/LARGO RD","state":"FL","zip":33770,"location":{"coordinates":[-82.7970152459999,27.925412958],"type":"Point"}}
{"_id":{"$oid":"5c7ac5cc0b1675c9eb4b5890"},"name":"KINDRED HOSPITAL-BAY AREA-ST PETERSBURG","city":"SAINT PETERSBURG","address":"3030 6TH ST S","state":"FL","zip":33705,"location":{"coordinates":[-82.639993858,27.7407459880001],"type":"Point"}}
{"_id":{"$oid":"5c7ac5cc0b1675c9eb4b5891"},"name":"LARGO MEDICAL CENTER","city":"LARGO","address":"201 14TH ST SW","state":"FL","zip":33770,"location":{"coordinates":[-82.8036486569999,27.9141474940001],"type":"Point"}}
{"_id":{"$oid":"5c7ac5cc0b1675c9eb4b5892"},"name":"LARGO MEDICAL CENTER - INDIAN ROCKS","city":"LARGO","address":"2025 INDIAN ROCKS RD","state":"FL","zip":33774,"location":{"coordinates":[-82.824866546,27.898712367],"type":"Point"}}
{"_id":{"$oid":"5c7ac5cc0b1675c9eb4b5893"},"name":"MEASE COUNTRYSIDE HOSPITAL","city":"SAFETY HARBOR","address":"3231 MCMULLEN BOOTH RD","state":"FL","zip":34695,"location":{"coordinates":[-82.707985172,28.0387469780001],"type":"Point"}}
{"_id":{"$oid":"5c7ac5cc0b1675c9eb4b5894"},"name":"MEASE DUNEDIN HOSPITAL","city":"DUNEDIN","address":"601 MAIN ST","state":"FL","zip":34698,"location":{"coordinates":[-82.78322148,28.0135453180001],"type":"Point"}}
{"_id":{"$oid":"5c7ac5cc0b1675c9eb4b5895"},"name":"NORTHSIDE HOSPITAL","city":"SAINT PETERSBURG","address":"6000 49TH ST N","state":"FL","zip":33709,"location":{"coordinates":[-82.702111988,27.8255595960001],"type":"Point"}}
{"_id":{"$oid":"5c7ac5cc0b1675c9eb4b5896"},"name":"MORTON PLANT HOSPITAL","city":"CLEARWATER","address":"300 PINELLAS ST","state":"FL","zip":33756,"location":{"coordinates":[-82.803696838,27.952816747],"type":"Point"}}
{"_id":{"$oid":"5c7ac5cc0b1675c9eb4b5897"},"name":"ST ANTHONYS HOSPITAL","city":"SAINT PETERSBURG","address":"1200 7TH AVE N","state":"FL","zip":33705,"location":{"coordinates":[-82.650529722,27.7786166170001],"type":"Point"}}
{"_id":{"$oid":"5c7ac5cc0b1675c9eb4b5898"},"name":"ST PETERSBURG GENERAL HOSPITAL","city":"SAINT PETERSBURG","address":"6500 38TH AVE N","state":"FL","zip":33710,"location":{"coordinates":[-82.727538744,27.8054392110001],"type":"Point"}}
{"_id":{"$oid":"5c7ac5cc0b1675c9eb4b5899"},"name":"WINDMOOR HEALTHCARE OF CLEARWATER","city":"CLEARWATER","address":"11300 US HWY 19 N","state":"FL","zip":33764,"location":{"coordinates":[-82.7108457269999,27.8747548280001],"type":"Point"}}
{"_id":{"$oid":"5c7ac5cc0b1675c9eb4b589a"},"name":"FLORIDA HOSPITAL HEARTLAND MEDICAL CENTER","city":"SEBRING","address":"4200 SUN N LAKE BLVD","state":"FL","zip":33872,"location":{"coordinates":[-81.5092099839999,27.539751274],"type":"Point"}}
{"_id":{"$oid":"5c7ac5cc0b1675c9eb4b589b"},"name":"FLORIDA HOSPITAL HEARTLAND MEDICAL CENTER AT LAKE PLACID","city":"LAKE PLACID","address":"1210 US 27 N","state":"FL","zip":33852,"location":{"coordinates":[-81.3697301349999,27.320042857],"type":"Point"}}
{"_id":{"$oid":"5c7ac5cc0b1675c9eb4b589c"},"name":"HIGHLANDS REGIONAL MEDICAL CENTER","city":"SEBRING","address":"3600 S HIGHLANDS AVE","state":"FL","zip":33870,"location":{"coordinates":[-81.432960583,27.465589235],"type":"Point"}}
{"_id":{"$oid":"5c7ac5cc0b1675c9eb4b589d"},"name":"FLORIDA HOSPITAL CARROLLWOOD","city":"TAMPA","address":"7171 N DALE MABRY HWY","state":"FL","zip":33614,"location":{"coordinates":[-82.504007245,28.0132377310001],"type":"Point"}}
{"_id":{"$oid":"5c7ac5cc0b1675c9eb4b589e"},"name":"H LEE MOFFITT CANCER CTR \u0026 RESEARCH INST","city":"TAMPA","address":"12902 MAGNOLIA DR","state":"FL","zip":33612,"location":{"coordinates":[-82.421308026,28.064098717],"type":"Point"}}
{"_id":{"$oid":"5c7ac5cc0b1675c9eb4b589f"},"name":"KINDRED HOSPITAL-BAY AREA-TAMPA","city":"TAMPA","address":"4555 S MANHATTAN AVE","state":"FL","zip":33611,"location":{"coordinates":[-82.519059794,27.898069089],"type":"Point"}}
{"_id":{"$oid":"5c7ac5cc0b1675c9eb4b58a0"},"name":"KINDRED HOSPITAL-CENTRAL TAMPA","city":"TAMPA","address":"4801 N HOWARD AVE","state":"FL","zip":33603,"location":{"coordinates":[-82.481608504,27.9891407390001],"type":"Point"}}
{"_id":{"$oid":"5c7ac5cc0b1675c9eb4b58a1"},"name":"SHRINERS HOSPITALS FOR CHILDREN - TAMPA","city":"TAMPA","address":"12502 USF PINE DR","state":"FL","zip":33612,"location":{"coordinates":[-82.42284161,28.0615605200001],"type":"Point"}}
{"_id":{"$oid":"5c7ac5cc0b1675c9eb4b58a2"},"name":"SOUTH BAY HOSPITAL","city":"SUN CITY CENTER","address":"4016 SUN CITY CENTER BLVD","state":"FL","zip":33573,"location":{"coordinates":[-82.365391411,27.7135511270001],"type":"Point"}}
{"_id":{"$oid":"5c7ac5cc0b1675c9eb4b58a3"},"name":"SOUTH FLORIDA BAPTIST HOSPITAL","city":"PLANT CITY","address":"301 N ALEXANDER ST","state":"FL","zip":33563,"location":{"coordinates":[-82.138929363,28.0156788480001],"type":"Point"}}
{"_id":{"$oid":"5c7ac5cc0b1675c9eb4b58a4"},"name":"ST JOSEPH'S HOSPITAL BEHAVIORAL HEALTH CENTER","city":"TAMPA","address":"4918 HABANA AVE","state":"FL","zip":33607,"location":{"coordinates":[-82.489818468,27.991679983],"type":"Point"}}
{"_id":{"$oid":"5c7ac5cc0b1675c9eb4b58a5"},"name":"ST JOSEPH'S HOSPITAL NORTH","city":"LUTZ","address":"4211 VAN DYKE RD","state":"FL","zip":33558,"location":{"coordinates":[-82.509675586,28.1295801160001],"type":"Point"}}
{"_id":{"$oid":"5c7ac5cc0b1675c9eb4b58a6"},"name":"TAMPA GENERAL HOSPITAL","city":"TAMPA","address":"1 TAMPA GENERAL CIR","state":"FL","zip":33606,"location":{"coordinates":[-82.459155316,27.9379627000001],"type":"Point"}}
{"_id":{"$oid":"5c7ac5cc0b1675c9eb4b58a7"},"name":"HENDRY REGIONAL MEDICAL CENTER","city":"CLEWISTON","address":"524 W SAGAMORE AVE","state":"FL","zip":33440,"location":{"coordinates":[-80.941265554,26.7526813980001],"type":"Point"}}
{"_id":{"$oid":"5c7ac5cc0b1675c9eb4b58a8"},"name":"HEALTHSOUTH REHABILITATION HOSPITAL OF SPRING HILL","city":"BROOKSVILLE","address":"12440 CORTEZ BLVD","state":"FL","zip":34613,"location":{"coordinates":[-82.516960452,28.5322636330001],"type":"Point"}}
{"_id":{"$oid":"5c7ac5cc0b1675c9eb4b58a9"},"name":"SPRINGBROOK HOSPITAL","city":"BROOKSVILLE","address":"7007 GROVE RD","state":"FL","zip":34609,"location":{"coordinates":[-82.484208672,28.5329355380001],"type":"Point"}}
{"_id":{"$oid":"5c7ac5cc0b1675c9eb4b58aa"},"name":"LAKE BUTLER HOSPITAL HAND SURGERY CENTER","city":"LAKE BUTLER","address":"850 E MAIN ST","state":"FL","zip":32054,"location":{"coordinates":[-82.326909712,30.0227142530001],"type":"Point"}}
{"_id":{"$oid":"5c7ac5cc0b1675c9eb4b58ab"},"name":"WILLOUGH AT NAPLES HOSPITAL","city":"NAPLES","address":"9001 TAMIAMI TRL E","state":"FL","zip":34113,"location":{"coordinates":[-81.736309756,26.0960285140001],"type":"Point"}}
{"_id":{"$oid":"5c7ac5cc0b1675c9eb4b58ac"},"name":"DOCTORS MEMORIAL HOSPITAL","city":"PERRY","address":"333 N BYRON BUTLER PKWY","state":"FL","zip":32348,"location":{"coordinates":[-83.593322139,30.1201216430001],"type":"Point"}}
{"_id":{"$oid":"5c7ac5cc0b1675c9eb4b58ad"},"name":"BAYFRONT HEALTH SPRING HILL","city":"SPRING HILL","address":"10461 QUALITY DR","state":"FL","zip":34609,"location":{"coordinates":[-82.540374948,28.437487205],"type":"Point"}}
{"_id":{"$oid":"5c7ac5cc0b1675c9eb4b58ae"},"name":"TAMPA COMMUNITY HOSPITAL","city":"TAMPA","address":"6001 WEBB RD","state":"FL","zip":33615,"location":{"coordinates":[-82.5741747549999,28.0023845740001],"type":"Point"}}
{"_id":{"$oid":"5c7ac5cc0b1675c9eb4b58af"},"name":"DESOTO MEMORIAL HOSPITAL","city":"ARCADIA","address":"900 N ROBERT AVE","state":"FL","zip":34266,"location":{"coordinates":[-81.851023399,27.227404768],"type":"Point"}}
{"_id":{"$oid":"5c7ac5cc0b1675c9eb4b58b0"},